{
    "type": "FeatureCollection",
    "features":[
        {"geometry":{"type":"Point","coordinates":[60.802700042725,56.743099212646]},"type":"Feature","properties":{"id":26378,"ident":"USSS","name":"Koltsovo Airport","continent":"AS","iso_country":"RU","iso_region":"RU-SVE","municipality":"Yekaterinburg","scheduled_service":"yes","gps_code":"USSS","iata_code":"SVX","local_code":"","home_link":"http://www.koltsovo.ru/en/","wikipedia_link":"https://en.wikipedia.org/wiki/Koltsovo_Airport","keywords":""}},{"geometry":{"type":"Point","coordinates":[58.361,37.986801]},"type":"Feature","properties":{"id":26380,"ident":"UTAA","name":"Ashgabat International Airport","continent":"AS","iso_country":"TM","iso_region":"TM-A","municipality":"Ashgabat","scheduled_service":"yes","gps_code":"UTAA","iata_code":"ASB","local_code":"","home_link":"","wikipedia_link":"https://en.wikipedia.org/wiki/Ashgabat_International_Airport","keywords":"Saparmurat Turkmenbashy International Airport"}},{"geometry":{"type":"Point","coordinates":[69.2811965942,41.257900238]},"type":"Feature","properties":{"id":26392,"ident":"UTTT","name":"Tashkent International Airport","continent":"AS","iso_country":"UZ","iso_region":"UZ-TO","municipality":"Tashkent","scheduled_service":"yes","gps_code":"UTTT","iata_code":"TAS","local_code":"","home_link":"","wikipedia_link":"https://en.wikipedia.org/wiki/Tashkent_International_Airport","keywords":""}},{"geometry":{"type":"Point","coordinates":[38.150002,55.553299]},"type":"Feature","properties":{"id":42967,"ident":"UUBW","name":"Zhukovsky International Airport","continent":"EU","iso_country":"RU","iso_region":"RU-MOS","municipality":"Moscow","scheduled_service":"yes","gps_code":"UUBW","iata_code":"ZIA","local_code":"","home_link":"http://zia.aero/","wikipedia_link":"https://en.wikipedia.org/wiki/Zhukovsky_International_Airport","keywords":"Аэропорт Раменское, Zhukovsky Air Base, Gromov Flight Research Institute, Лётно-исследовательский институт имени М. М. Громова, ЛИИ"}},{"geometry":{"type":"Point","coordinates":[37.90629959106445,55.40879821777344]},"type":"Feature","properties":{"id":26394,"ident":"UUDD","name":"Domodedovo International Airport","continent":"EU","iso_country":"RU","iso_region":"RU-MOS","municipality":"Moscow","scheduled_service":"yes","gps_code":"UUDD","iata_code":"DME","local_code":"","home_link":"http://www.domodedovo.ru/en/","wikipedia_link":"https://en.wikipedia.org/wiki/Domodedovo_International_Airport","keywords":"MOW, Аэропорт Домоде́дово"}},{"geometry":{"type":"Point","coordinates":[37.4146,55.972599]},"type":"Feature","properties":{"id":26396,"ident":"UUEE","name":"Sheremetyevo International Airport","continent":"EU","iso_country":"RU","iso_region":"RU-MOS","municipality":"Moscow","scheduled_service":"yes","gps_code":"UUEE","iata_code":"SVO","local_code":"","home_link":"http://www.svo.aero/en/","wikipedia_link":"https://en.wikipedia.org/wiki/Sheremetyevo_International_Airport","keywords":"MOW, Международный аэропорт Шереметьево, svo, sheremetyevo, moscow"}},{"geometry":{"type":"Point","coordinates":[37.2615013123,55.5914993286]},"type":"Feature","properties":{"id":26401,"ident":"UUWW","name":"Vnukovo International Airport","continent":"EU","iso_country":"RU","iso_region":"RU-MOS","municipality":"Moscow","scheduled_service":"yes","gps_code":"UUWW","iata_code":"VKO","local_code":"","home_link":"http://www.vnukovo.ru/eng","wikipedia_link":"https://en.wikipedia.org/wiki/Vnukovo_International_Airport","keywords":"MOW, Международный аэропорт Внуково"}},{"geometry":{"type":"Point","coordinates":[49.278701782227,55.606201171875]},"type":"Feature","properties":{"id":26404,"ident":"UWKD","name":"Kazan International Airport","continent":"EU","iso_country":"RU","iso_region":"RU-TA","municipality":"Kazan","scheduled_service":"yes","gps_code":"UWKD","iata_code":"KZN","local_code":"","home_link":"http://www.kazan.aero/en/","wikipedia_link":"https://en.wikipedia.org/wiki/Kazan_International_Airport","keywords":""}},{"geometry":{"type":"Point","coordinates":[49.13330078125,55.86669921875]},"type":"Feature","properties":{"id":34954,"ident":"UWKG","name":"Borisoglebskoye Airport","continent":"EU","iso_country":"RU","iso_region":"RU-TA","municipality":"Kazan","scheduled_service":"no","gps_code":"UWKG","iata_code":"","local_code":"","home_link":"","wikipedia_link":"https://en.wikipedia.org/wiki/Borisoglebskoye_Airport","keywords":"Аэропорт Борисоглебское"}},{"geometry":{"type":"Point","coordinates":[55.874401092529,54.557498931885]},"type":"Feature","properties":{"id":26411,"ident":"UWUU","name":"Ufa International Airport","continent":"EU","iso_country":"RU","iso_region":"RU-BA","municipality":"Ufa","scheduled_service":"yes","gps_code":"UWUU","iata_code":"UFA","local_code":"","home_link":"http://www.airportufa.ru/en/","wikipedia_link":"https://en.wikipedia.org/wiki/Ufa_International_Airport","keywords":"Международный аэропорт Уфа"}},{"geometry":{"type":"Point","coordinates":[50.16429901123,53.504901885986]},"type":"Feature","properties":{"id":26412,"ident":"UWWW","name":"Kurumoch International Airport","continent":"EU","iso_country":"RU","iso_region":"RU-SAM","municipality":"Samara","scheduled_service":"yes","gps_code":"UWWW","iata_code":"KUF","local_code":"","home_link":"http://airport.samara.ru/en/","wikipedia_link":"https://en.wikipedia.org/wiki/Kurumoch_International_Airport","keywords":""}},{"geometry":{"type":"Point","coordinates":[72.8678970337,19.0886993408]},"type":"Feature","properties":{"id":26434,"ident":"VABB","name":"Chhatrapati Shivaji International Airport","continent":"AS","iso_country":"IN","iso_region":"IN-MM","municipality":"Mumbai","scheduled_service":"yes","gps_code":"VABB","iata_code":"BOM","local_code":"","home_link":"http://www.csia.in/","wikipedia_link":"https://en.wikipedia.org/wiki/Chhatrapati_Shivaji_International_Airport","keywords":"Bombay, Sahar International Airport"}},{"geometry":{"type":"Point","coordinates":[73.8313980103,15.3808002472]},"type":"Feature","properties":{"id":26444,"ident":"VAGO","name":"Dabolim Airport","continent":"AS","iso_country":"IN","iso_region":"IN-GA","municipality":"Vasco da Gama","scheduled_service":"yes","gps_code":"VOGO","iata_code":"GOI","local_code":"","home_link":"","wikipedia_link":"https://en.wikipedia.org/wiki/Dabolim_Airport","keywords":"Goa Airport, Dabolim Navy Airbase, दाबोळी विमानतळ"}},{"geometry":{"type":"Point","coordinates":[79.88410186767578,7.180759906768799]},"type":"Feature","properties":{"id":26463,"ident":"VCBI","name":"Bandaranaike International Colombo Airport","continent":"AS","iso_country":"LK","iso_region":"LK-1","municipality":"Colombo","scheduled_service":"yes","gps_code":"VCBI","iata_code":"CMB","local_code":"","home_link":"http://www.airport.lk/","wikipedia_link":"https://en.wikipedia.org/wiki/Bandaranaike_International_Airport","keywords":"RAF Negombo, Katunayake International Airport"}},{"geometry":{"type":"Point","coordinates":[81.124128,6.284467]},"type":"Feature","properties":{"id":309579,"ident":"VCRI","name":"Mattala Rajapaksa International Airport","continent":"AS","iso_country":"LK","iso_region":"LK-3","municipality":"","scheduled_service":"yes","gps_code":"VCRI","iata_code":"HRI","local_code":"VCRI","home_link":"http://www.mria.lk/","wikipedia_link":"https://en.wikipedia.org/wiki/Mattala_Rajapaksa_International_Airport","keywords":"Hambantota International Airport"}},{"geometry":{"type":"Point","coordinates":[104.84400177001953,11.546600341796875]},"type":"Feature","properties":{"id":26475,"ident":"VDPP","name":"Phnom Penh International Airport","continent":"AS","iso_country":"KH","iso_region":"KH-8","municipality":"Phnom Penh","scheduled_service":"yes","gps_code":"VDPP","iata_code":"PNH","local_code":"","home_link":"http://www.cambodia-airports.com/phnompenh/en/","wikipedia_link":"https://en.wikipedia.org/wiki/Phnom_Penh_International_Airport","keywords":"Pochentong International Airport"}},{"geometry":{"type":"Point","coordinates":[103.81300354,13.410699844400002]},"type":"Feature","properties":{"id":26476,"ident":"VDSR","name":"Siem Reap International Airport","continent":"AS","iso_country":"KH","iso_region":"KH-17","municipality":"Siem Reap","scheduled_service":"yes","gps_code":"VDSR","iata_code":"REP","local_code":"","home_link":"http://www.cambodia-airports.com/siemreap/en","wikipedia_link":"https://en.wikipedia.org/wiki/Siem_Reap_International_Airport","keywords":"Angkor International Airport"}},{"geometry":{"type":"Point","coordinates":[88.44670104980469,22.654699325561523]},"type":"Feature","properties":{"id":26496,"ident":"VECC","name":"Netaji Subhash Chandra Bose International Airport","continent":"AS","iso_country":"IN","iso_region":"IN-WB","municipality":"Kolkata","scheduled_service":"yes","gps_code":"VECC","iata_code":"CCU","local_code":"","home_link":"","wikipedia_link":"https://en.wikipedia.org/wiki/Netaji_Subhash_Chandra_Bose_International_Airport","keywords":"Calcutta, Kolkatta, Dum Dum Air Force Station"}},{"geometry":{"type":"Point","coordinates":[90.397783,23.843347]},"type":"Feature","properties":{"id":26534,"ident":"VGZR","name":"Hazrat Shahjalal International Airport","continent":"AS","iso_country":"BD","iso_region":"BD-3","municipality":"Dhaka","scheduled_service":"yes","gps_code":"VGHS","iata_code":"DAC","local_code":"","home_link":"","wikipedia_link":"https://en.wikipedia.org/wiki/Shahjalal_International_Airport","keywords":"VGZR, Zia International Airport, Dacca International Airport, Hazrat Shahjalal International Airport"}},{"geometry":{"type":"Point","coordinates":[113.915001,22.308901]},"type":"Feature","properties":{"id":26535,"ident":"VHHH","name":"Hong Kong International Airport","continent":"AS","iso_country":"HK","iso_region":"HK-U-A","municipality":"Hong Kong","scheduled_service":"yes","gps_code":"VHHH","iata_code":"HKG","local_code":"","home_link":"http://www.hongkongairport.com/","wikipedia_link":"https://en.wikipedia.org/wiki/Hong_Kong_International_Airport","keywords":"Chek Lap Kok Airport, 赤鱲角機場"}},{"geometry":{"type":"Point","coordinates":[74.7973022461,31.7096004486]},"type":"Feature","properties":{"id":26540,"ident":"VIAR","name":"Sri Guru Ram Dass Jee International Airport","continent":"AS","iso_country":"IN","iso_region":"IN-PB","municipality":"Amritsar","scheduled_service":"yes","gps_code":"VIAR","iata_code":"ATQ","local_code":"","home_link":"http://www.aai.aero/allAirports/amritsar_generalinfo.jsp","wikipedia_link":"https://en.wikipedia.org/wiki/Sri_Guru_Ram_Dass_Jee_International_Airport","keywords":"Amritsar Air Force Station"}},{"geometry":{"type":"Point","coordinates":[77.103104,28.5665]},"type":"Feature","properties":{"id":26555,"ident":"VIDP","name":"Indira Gandhi International Airport","continent":"AS","iso_country":"IN","iso_region":"IN-DL","municipality":"New Delhi","scheduled_service":"yes","gps_code":"VIDP","iata_code":"DEL","local_code":"","home_link":"http://www.newdelhiairport.in/","wikipedia_link":"https://en.wikipedia.org/wiki/Indira_Gandhi_International_Airport","keywords":"Palam Air Force Station"}},{"geometry":{"type":"Point","coordinates":[113.592003,22.149599]},"type":"Feature","properties":{"id":26589,"ident":"VMMC","name":"Macau International Airport","continent":"AS","iso_country":"MO","iso_region":"MO-U-A","municipality":"Macau","scheduled_service":"yes","gps_code":"VMMC","iata_code":"MFM","local_code":"","home_link":"http://www.macau-airport.gov.mo/en/index.php","wikipedia_link":"https://en.wikipedia.org/wiki/Macau_International_Airport","keywords":"澳門國際機場"}},{"geometry":{"type":"Point","coordinates":[85.3591,27.6966]},"type":"Feature","properties":{"id":26596,"ident":"VNKT","name":"Tribhuvan International Airport","continent":"AS","iso_country":"NP","iso_region":"NP-BA","municipality":"Kathmandu","scheduled_service":"yes","gps_code":"VNKT","iata_code":"KTM","local_code":"","home_link":"http://www.tiairport.com.np/index.php","wikipedia_link":"https://en.wikipedia.org/wiki/Tribhuvan_International_Airport","keywords":"gaucharan"}},{"geometry":{"type":"Point","coordinates":[77.706299,13.1979]},"type":"Feature","properties":{"id":35145,"ident":"VOBL","name":"Kempegowda International Airport","continent":"AS","iso_country":"IN","iso_region":"IN-KA","municipality":"Bangalore","scheduled_service":"yes","gps_code":"VOBL","iata_code":"BLR","local_code":"","home_link":"http://www.bengaluruairport.com/home/home.jspx","wikipedia_link":"https://en.wikipedia.org/wiki/Kempegowda_International_Airport","keywords":""}},{"geometry":{"type":"Point","coordinates":[76.401901,10.152]},"type":"Feature","properties":{"id":26609,"ident":"VOCI","name":"Cochin International Airport","continent":"AS","iso_country":"IN","iso_region":"IN-KL","municipality":"Kochi","scheduled_service":"yes","gps_code":"VOCI","iata_code":"COK","local_code":"","home_link":"http://www.cochin-airport.com/","wikipedia_link":"https://en.wikipedia.org/wiki/Cochin_International_Airport","keywords":"Cochin"}},{"geometry":{"type":"Point","coordinates":[75.95529937740001,11.1367998123]},"type":"Feature","properties":{"id":26610,"ident":"VOCL","name":"Calicut International Airport","continent":"AS","iso_country":"IN","iso_region":"IN-KL","municipality":"Calicut","scheduled_service":"yes","gps_code":"VOCL","iata_code":"CCJ","local_code":"","home_link":"","wikipedia_link":"https://en.wikipedia.org/wiki/Calicut_International_Airport","keywords":""}},{"geometry":{"type":"Point","coordinates":[78.4298553467,17.2313175201]},"type":"Feature","properties":{"id":35141,"ident":"VOHS","name":"Rajiv Gandhi International Airport","continent":"AS","iso_country":"IN","iso_region":"IN-TG","municipality":"Hyderabad","scheduled_service":"yes","gps_code":"VOHS","iata_code":"HYD","local_code":"","home_link":"http://www.shamshabadairport.com/","wikipedia_link":"https://en.wikipedia.org/wiki/Rajiv_Gandhi_International_Airport","keywords":"Shamshabad, Hyderabad"}},{"geometry":{"type":"Point","coordinates":[80.16929626464844,12.990005493164062]},"type":"Feature","properties":{"id":26618,"ident":"VOMM","name":"Chennai International Airport","continent":"AS","iso_country":"IN","iso_region":"IN-TN","municipality":"Chennai","scheduled_service":"yes","gps_code":"VOMM","iata_code":"MAA","local_code":"","home_link":"","wikipedia_link":"https://en.wikipedia.org/wiki/Chennai_International_Airport","keywords":""}},{"geometry":{"type":"Point","coordinates":[76.9200973511,8.48211956024]},"type":"Feature","properties":{"id":26629,"ident":"VOTV","name":"Trivandrum International Airport","continent":"AS","iso_country":"IN","iso_region":"IN-KL","municipality":"Thiruvananthapuram","scheduled_service":"yes","gps_code":"VOTV","iata_code":"TRV","local_code":"","home_link":"","wikipedia_link":"https://en.wikipedia.org/wiki/Trivandrum_International_Airport","keywords":"Thiruvananthapuram International Airport, Trivandrum Air Force Station"}},{"geometry":{"type":"Point","coordinates":[73.52909851074219,4.191830158233643]},"type":"Feature","properties":{"id":26636,"ident":"VRMM","name":"Malé International Airport","continent":"AS","iso_country":"MV","iso_region":"MV-MLE","municipality":"Malé","scheduled_service":"yes","gps_code":"VRMM","iata_code":"MLE","local_code":"","home_link":"http://www.airports.com.mv/","wikipedia_link":"https://en.wikipedia.org/wiki/Mal%C3%A9_International_Airport","keywords":""}},{"geometry":{"type":"Point","coordinates":[100.607002258,13.9125995636]},"type":"Feature","properties":{"id":26638,"ident":"VTBD","name":"Don Mueang International Airport","continent":"AS","iso_country":"TH","iso_region":"TH-10","municipality":"Bangkok","scheduled_service":"yes","gps_code":"VTBD","iata_code":"DMK","local_code":"","home_link":"http://www2.airportthai.co.th/airportnew/bangkok/index.asp?lang=en","wikipedia_link":"https://en.wikipedia.org/wiki/Don_Mueang_International_Airport","keywords":"Old Bangkok International Airport, Don Muang Royal Thai Air Force Base"}},{"geometry":{"type":"Point","coordinates":[100.74700164794922,13.681099891662598]},"type":"Feature","properties":{"id":28118,"ident":"VTBS","name":"Suvarnabhumi Airport","continent":"AS","iso_country":"TH","iso_region":"TH-10","municipality":"Bangkok","scheduled_service":"yes","gps_code":"VTBS","iata_code":"BKK","local_code":"","home_link":"","wikipedia_link":"https://en.wikipedia.org/wiki/Suvarnabhumi_Airport","keywords":""}},{"geometry":{"type":"Point","coordinates":[98.962600708,18.766799926799997]},"type":"Feature","properties":{"id":26647,"ident":"VTCC","name":"Chiang Mai International Airport","continent":"AS","iso_country":"TH","iso_region":"TH-50","municipality":"Chiang Mai","scheduled_service":"yes","gps_code":"VTCC","iata_code":"CNX","local_code":"","home_link":"","wikipedia_link":"https://en.wikipedia.org/wiki/Chiang_Mai_International_Airport","keywords":""}},{"geometry":{"type":"Point","coordinates":[98.316902,8.1132]},"type":"Feature","properties":{"id":26674,"ident":"VTSP","name":"Phuket International Airport","continent":"AS","iso_country":"TH","iso_region":"TH-83","municipality":"Phuket","scheduled_service":"yes","gps_code":"VTSP","iata_code":"HKT","local_code":"","home_link":"","wikipedia_link":"https://en.wikipedia.org/wiki/Phuket_International_Airport","keywords":""}},{"geometry":{"type":"Point","coordinates":[108.1989974975586,16.043899536132812]},"type":"Feature","properties":{"id":26697,"ident":"VVDN","name":"Da Nang International Airport","continent":"AS","iso_country":"VN","iso_region":"VN-60","municipality":"Da Nang","scheduled_service":"yes","gps_code":"VVDN","iata_code":"DAD","local_code":"","home_link":"","wikipedia_link":"https://en.wikipedia.org/wiki/Da_Nang_International_Airport","keywords":"Danang, Cảng Hàng không Quốc tế Đà Nẵng"}},{"geometry":{"type":"Point","coordinates":[105.80699920654297,21.221200942993164]},"type":"Feature","properties":{"id":26700,"ident":"VVNB","name":"Noi Bai International Airport","continent":"AS","iso_country":"VN","iso_region":"VN-15","municipality":"Hanoi","scheduled_service":"yes","gps_code":"VVNB","iata_code":"HAN","local_code":"","home_link":"","wikipedia_link":"https://en.wikipedia.org/wiki/Noi_Bai_International_Airport","keywords":"Noibai Airport, Sân bay Quốc tế Nội Bài"}},{"geometry":{"type":"Point","coordinates":[106.652000427,10.8187999725]},"type":"Feature","properties":{"id":26708,"ident":"VVTS","name":"Tan Son Nhat International Airport","continent":"AS","iso_country":"VN","iso_region":"VN-23","municipality":"Ho Chi Minh City","scheduled_service":"yes","gps_code":"VVTS","iata_code":"SGN","local_code":"","home_link":"http://www.tsnairport.hochiminhcity.gov.vn/","wikipedia_link":"https://en.wikipedia.org/wiki/Tan_Son_Nhat_International_Airport","keywords":"Tansonnhat, Sài Gòn, Saigon, Sân bay Quốc tế Tân Sơn Nhất"}},{"geometry":{"type":"Point","coordinates":[95.97789764404297,21.702199935913086]},"type":"Feature","properties":{"id":26727,"ident":"VYMD","name":"Mandalay International Airport","continent":"AS","iso_country":"MM","iso_region":"MM-04","municipality":"Mandalay","scheduled_service":"yes","gps_code":"VYMD","iata_code":"MDL","local_code":"","home_link":"","wikipedia_link":"https://en.wikipedia.org/wiki/Mandalay_International_Airport","keywords":""}},{"geometry":{"type":"Point","coordinates":[96.1332015991,16.907300949099998]},"type":"Feature","properties":{"id":26744,"ident":"VYYY","name":"Yangon International Airport","continent":"AS","iso_country":"MM","iso_region":"MM-06","municipality":"Yangon","scheduled_service":"yes","gps_code":"VYYY","iata_code":"RGN","local_code":"","home_link":"http://www.yangonairportonline.com","wikipedia_link":"https://en.wikipedia.org/wiki/Yangon_International_Airport","keywords":"Rangoon"}},{"geometry":{"type":"Point","coordinates":[119.55400085449219,-5.061629772186279]},"type":"Feature","properties":{"id":26745,"ident":"WAAA","name":"Hasanuddin International Airport","continent":"AS","iso_country":"ID","iso_region":"ID-SN","municipality":"Ujung Pandang-Celebes Island","scheduled_service":"yes","gps_code":"WAAA","iata_code":"UPG","local_code":"","home_link":"","wikipedia_link":"https://en.wikipedia.org/wiki/Hasanuddin_International_Airport","keywords":""}},{"geometry":{"type":"Point","coordinates":[115.16699981689,-8.7481698989868]},"type":"Feature","properties":{"id":26751,"ident":"WADD","name":"Ngurah Rai (Bali) International Airport","continent":"AS","iso_country":"ID","iso_region":"ID-BA","municipality":"Denpasar-Bali Island","scheduled_service":"yes","gps_code":"WADD","iata_code":"DPS","local_code":"","home_link":"http://www.angkasapura1.co.id/eng/location/bali.htm","wikipedia_link":"https://en.wikipedia.org/wiki/Ngurah_Rai_Airport","keywords":"WRRR"}},{"geometry":{"type":"Point","coordinates":[140.5160064698,-2.5769500733]},"type":"Feature","properties":{"id":26755,"ident":"WAJJ","name":"Sentani International Airport","continent":"AS","iso_country":"ID","iso_region":"ID-PA","municipality":"Jayapura-Papua Island","scheduled_service":"yes","gps_code":"WAJJ","iata_code":"DJJ","local_code":"","home_link":"","wikipedia_link":"https://en.wikipedia.org/wiki/Sentani_International_Airport","keywords":""}},{"geometry":{"type":"Point","coordinates":[112.78700256347656,-7.3798298835754395]},"type":"Feature","properties":{"id":26789,"ident":"WARR","name":"Juanda International Airport","continent":"AS","iso_country":"ID","iso_region":"ID-JI","municipality":"Surabaya","scheduled_service":"yes","gps_code":"WARR","iata_code":"SUB","local_code":"","home_link":"http://www.juanda-airport.com/","wikipedia_link":"https://en.wikipedia.org/wiki/Juanda_International_Airport","keywords":"WRSJ"}},{"geometry":{"type":"Point","coordinates":[131.287,-0.894]},"type":"Feature","properties":{"id":32634,"ident":"WAXX","name":"Dominique Edward Osok Airport","continent":"AS","iso_country":"ID","iso_region":"ID-PB","municipality":"Sorong-Papua Island","scheduled_service":"yes","gps_code":"WASS","iata_code":"SOQ","local_code":"","home_link":"","wikipedia_link":"https://en.wikipedia.org/wiki/Dominique_Edward_Osok_Airport","keywords":"WAXX"}},{"geometry":{"type":"Point","coordinates":[114.9280014038086,4.944200038909912]},"type":"Feature","properties":{"id":26819,"ident":"WBSB","name":"Brunei International Airport","continent":"AS","iso_country":"BN","iso_region":"BN-BM","municipality":"Bandar Seri Begawan","scheduled_service":"yes","gps_code":"WBSB","iata_code":"BWN","local_code":"","home_link":"","wikipedia_link":"https://en.wikipedia.org/wiki/Brunei_International_Airport","keywords":""}},{"geometry":{"type":"Point","coordinates":[106.65599823,-6.1255698204]},"type":"Feature","properties":{"id":26835,"ident":"WIII","name":"Soekarno-Hatta International Airport","continent":"AS","iso_country":"ID","iso_region":"ID-BT","municipality":"Jakarta","scheduled_service":"yes","gps_code":"WIII","iata_code":"CGK","local_code":"","home_link":"http://www.jakartasoekarnohattaairport.com/","wikipedia_link":"https://en.wikipedia.org/wiki/Soekarno-Hatta_International_Airport","keywords":"JKT, Cengkareng, Java"}},{"geometry":{"type":"Point","coordinates":[98.885278,3.642222]},"type":"Feature","properties":{"id":309577,"ident":"WIMM","name":"Kualanamu International Airport","continent":"AS","iso_country":"ID","iso_region":"ID-SU","municipality":"","scheduled_service":"yes","gps_code":"WIMM","iata_code":"KNO","local_code":"","home_link":"http://www.kualanamu-airport.co.id/","wikipedia_link":"https://en.wikipedia.org/wiki/Kualanamu_International_Airport","keywords":""}},{"geometry":{"type":"Point","coordinates":[101.70999908447,2.745579957962]},"type":"Feature","properties":{"id":26874,"ident":"WMKK","name":"Kuala Lumpur International Airport","continent":"AS","iso_country":"MY","iso_region":"MY-14","municipality":"Kuala Lumpur","scheduled_service":"yes","gps_code":"WMKK","iata_code":"KUL","local_code":"","home_link":"","wikipedia_link":"https://en.wikipedia.org/wiki/Kuala_Lumpur_International_Airport","keywords":"KLIA"}},{"geometry":{"type":"Point","coordinates":[103.994003,1.35019]},"type":"Feature","properties":{"id":26887,"ident":"WSSS","name":"Singapore Changi Airport","continent":"AS","iso_country":"SG","iso_region":"SG-04","municipality":"Singapore","scheduled_service":"yes","gps_code":"WSSS","iata_code":"SIN","local_code":"","home_link":"http://www.changiairport.com/","wikipedia_link":"https://en.wikipedia.org/wiki/Singapore_Changi_Airport","keywords":""}},{"geometry":{"type":"Point","coordinates":[153.11700439453125,-27.384199142456055]},"type":"Feature","properties":{"id":26901,"ident":"YBBN","name":"Brisbane International Airport","continent":"OC","iso_country":"AU","iso_region":"AU-QLD","municipality":"Brisbane","scheduled_service":"yes","gps_code":"YBBN","iata_code":"BNE","local_code":"","home_link":"","wikipedia_link":"https://en.wikipedia.org/wiki/Brisbane_Airport","keywords":""}},{"geometry":{"type":"Point","coordinates":[144.843002,-37.673302]},"type":"Feature","properties":{"id":27066,"ident":"YMML","name":"Melbourne International Airport","continent":"OC","iso_country":"AU","iso_region":"AU-VIC","municipality":"Melbourne","scheduled_service":"yes","gps_code":"YMML","iata_code":"MEL","local_code":"","home_link":"http://melbourneairport.com.au/","wikipedia_link":"https://en.wikipedia.org/wiki/Melbourne_Airport","keywords":""}},{"geometry":{"type":"Point","coordinates":[120.987222,37.657222]},"type":"Feature","properties":{"id":332096,"ident":"YNT","name":"Yantai Penglai International Airport","continent":"AS","iso_country":"CN","iso_region":"CN-37","municipality":"Yantai","scheduled_service":"yes","gps_code":"ZSYT","iata_code":"YNT","local_code":"","home_link":"http://www.ytairport.com.cn/","wikipedia_link":"https://en.wikipedia.org/wiki/Yantai_Penglai_International_Airport","keywords":""}},{"geometry":{"type":"Point","coordinates":[138.531006,-34.945]},"type":"Feature","properties":{"id":27096,"ident":"YPAD","name":"Adelaide International Airport","continent":"OC","iso_country":"AU","iso_region":"AU-SA","municipality":"Adelaide","scheduled_service":"yes","gps_code":"YPAD","iata_code":"ADL","local_code":"","home_link":"","wikipedia_link":"https://en.wikipedia.org/wiki/Adelaide_International_Airport","keywords":""}},{"geometry":{"type":"Point","coordinates":[115.96700286865234,-31.94029998779297]},"type":"Feature","properties":{"id":27119,"ident":"YPPH","name":"Perth International Airport","continent":"OC","iso_country":"AU","iso_region":"AU-WA","municipality":"Perth","scheduled_service":"yes","gps_code":"YPPH","iata_code":"PER","local_code":"","home_link":"","wikipedia_link":"https://en.wikipedia.org/wiki/Perth_Airport","keywords":""}},{"geometry":{"type":"Point","coordinates":[149.19500732421875,-35.30690002441406]},"type":"Feature","properties":{"id":27131,"ident":"YSCB","name":"Canberra International Airport","continent":"OC","iso_country":"AU","iso_region":"AU-ACT","municipality":"Canberra","scheduled_service":"yes","gps_code":"YSCB","iata_code":"CBR","local_code":"","home_link":"","wikipedia_link":"https://en.wikipedia.org/wiki/Canberra_International_Airport","keywords":"RAAF Base Fairbairn"}},{"geometry":{"type":"Point","coordinates":[151.177001953125,-33.94609832763672]},"type":"Feature","properties":{"id":27145,"ident":"YSSY","name":"Sydney Kingsford Smith International Airport","continent":"OC","iso_country":"AU","iso_region":"AU-NSW","municipality":"Sydney","scheduled_service":"yes","gps_code":"YSSY","iata_code":"SYD","local_code":"","home_link":"http://www.sydneyairport.com.au/","wikipedia_link":"https://en.wikipedia.org/wiki/Kingsford_Smith_International_Airport","keywords":"RAAF Station Mascot"}},{"geometry":{"type":"Point","coordinates":[116.58499908447266,40.080101013183594]},"type":"Feature","properties":{"id":27188,"ident":"ZBAA","name":"Beijing Capital International Airport","continent":"AS","iso_country":"CN","iso_region":"CN-11","municipality":"Beijing","scheduled_service":"yes","gps_code":"ZBAA","iata_code":"PEK","local_code":"","home_link":"http://en.bcia.com.cn/","wikipedia_link":"https://en.wikipedia.org/wiki/Beijing_Capital_International_Airport","keywords":"BJS, Bejing, Peking, Olympics"}},{"geometry":{"type":"Point","coordinates":[116.41092,39.509945]},"type":"Feature","properties":{"id":330820,"ident":"ZBAD","name":"Beijing Daxing International Airport","continent":"AS","iso_country":"CN","iso_region":"CN-13","municipality":"Beijing","scheduled_service":"no","gps_code":"ZBAD","iata_code":"PKX","local_code":"","home_link":"","wikipedia_link":"https://en.wikipedia.org/wiki/Beijing_Daxing_International_Airport","keywords":""}},{"geometry":{"type":"Point","coordinates":[111.823997,40.851398]},"type":"Feature","properties":{"id":27189,"ident":"ZBHH","name":"Baita International Airport","continent":"AS","iso_country":"CN","iso_region":"CN-15","municipality":"Hohhot","scheduled_service":"yes","gps_code":"ZBHH","iata_code":"HET","local_code":"","home_link":"http://www.hhhtbtjc.com/","wikipedia_link":"https://en.wikipedia.org/wiki/Hohhot_Baita_International_Airport","keywords":""}},{"geometry":{"type":"Point","coordinates":[116.38800048828125,39.782798767089844]},"type":"Feature","properties":{"id":44093,"ident":"ZBNY","name":"Beijing Nanyuan Airport","continent":"AS","iso_country":"CN","iso_region":"CN-11","municipality":"Beijing","scheduled_service":"yes","gps_code":"ZBNY","iata_code":"NAY","local_code":"","home_link":"","wikipedia_link":"https://en.wikipedia.org/wiki/Nanyuan_Airport","keywords":""}},{"geometry":{"type":"Point","coordinates":[117.346000671,39.124401092499994]},"type":"Feature","properties":{"id":27192,"ident":"ZBTJ","name":"Tianjin Binhai International Airport","continent":"AS","iso_country":"CN","iso_region":"CN-12","municipality":"Tianjin","scheduled_service":"yes","gps_code":"ZBTJ","iata_code":"TSN","local_code":"","home_link":"","wikipedia_link":"https://en.wikipedia.org/wiki/Tianjin_Binhai_International_Airport","keywords":""}},{"geometry":{"type":"Point","coordinates":[112.62799835205078,37.74689865112305]},"type":"Feature","properties":{"id":27193,"ident":"ZBYN","name":"Taiyuan Wusu Airport","continent":"AS","iso_country":"CN","iso_region":"CN-14","municipality":"Taiyuan","scheduled_service":"yes","gps_code":"ZBYN","iata_code":"TYN","local_code":"","home_link":"","wikipedia_link":"https://en.wikipedia.org/wiki/Taiyuan_Wusu_Airport","keywords":""}},{"geometry":{"type":"Point","coordinates":[113.29900360107422,23.39240074157715]},"type":"Feature","properties":{"id":27194,"ident":"ZGGG","name":"Guangzhou Baiyun International Airport","continent":"AS","iso_country":"CN","iso_region":"CN-44","municipality":"Guangzhou","scheduled_service":"yes","gps_code":"ZGGG","iata_code":"CAN","local_code":"","home_link":"http://www.baiyunairport.com/english/index.jsp","wikipedia_link":"https://en.wikipedia.org/wiki/Guangzhou_Baiyun_International_Airport","keywords":""}},{"geometry":{"type":"Point","coordinates":[113.220001221,28.189199447599997]},"type":"Feature","properties":{"id":27195,"ident":"ZGHA","name":"Changsha Huanghua International Airport","continent":"AS","iso_country":"CN","iso_region":"CN-43","municipality":"Changsha","scheduled_service":"yes","gps_code":"ZGHA","iata_code":"CSX","local_code":"","home_link":"","wikipedia_link":"https://en.wikipedia.org/wiki/Changsha_Huanghua_International_Airport","keywords":"长沙黄花国际机场"}},{"geometry":{"type":"Point","coordinates":[110.03900146484375,25.21809959411621]},"type":"Feature","properties":{"id":27196,"ident":"ZGKL","name":"Guilin Liangjiang International Airport","continent":"AS","iso_country":"CN","iso_region":"CN-45","municipality":"Guilin City","scheduled_service":"yes","gps_code":"ZGKL","iata_code":"KWL","local_code":"","home_link":"","wikipedia_link":"https://en.wikipedia.org/wiki/Guilin_Liangjiang_International_Airport","keywords":""}},{"geometry":{"type":"Point","coordinates":[108.1719970703125,22.608299255371094]},"type":"Feature","properties":{"id":27197,"ident":"ZGNN","name":"Nanning Wuxu Airport","continent":"AS","iso_country":"CN","iso_region":"CN-45","municipality":"Nanning","scheduled_service":"yes","gps_code":"ZGNN","iata_code":"NNG","local_code":"","home_link":"http://www.nnairport.com/","wikipedia_link":"https://en.wikipedia.org/wiki/Nanning_Wuxu_International_Airport","keywords":"南宁吴圩机场, Nanning Wuxu Air Base"}},{"geometry":{"type":"Point","coordinates":[113.81099700927734,22.639299392700195]},"type":"Feature","properties":{"id":27198,"ident":"ZGSZ","name":"Shenzhen Bao'an International Airport","continent":"AS","iso_country":"CN","iso_region":"CN-44","municipality":"Shenzhen","scheduled_service":"yes","gps_code":"ZGSZ","iata_code":"SZX","local_code":"","home_link":"http://eng.szairport.com/","wikipedia_link":"https://en.wikipedia.org/wiki/Shenzhen_Bao'an_International_Airport","keywords":"Baoan, Huangtian Airport"}},{"geometry":{"type":"Point","coordinates":[113.841003418,34.519699096699995]},"type":"Feature","properties":{"id":27199,"ident":"ZHCC","name":"Zhengzhou Xinzheng International Airport","continent":"AS","iso_country":"CN","iso_region":"CN-41","municipality":"Zhengzhou","scheduled_service":"yes","gps_code":"ZHCC","iata_code":"CGO","local_code":"","home_link":"","wikipedia_link":"https://en.wikipedia.org/wiki/Zhengzhou_Xinzheng_International_Airport","keywords":"Xinzheng Airport"}},{"geometry":{"type":"Point","coordinates":[114.208,30.7838]},"type":"Feature","properties":{"id":27200,"ident":"ZHHH","name":"Wuhan Tianhe International Airport","continent":"AS","iso_country":"CN","iso_region":"CN-42","municipality":"Wuhan","scheduled_service":"yes","gps_code":"ZHHH","iata_code":"WUH","local_code":"","home_link":"http://www.whairport.com/","wikipedia_link":"https://en.wikipedia.org/wiki/Wuhan_Tianhe_International_Airport","keywords":""}},{"geometry":{"type":"Point","coordinates":[110.45899963378906,19.934900283813477]},"type":"Feature","properties":{"id":27201,"ident":"ZJHK","name":"Haikou Meilan International Airport","continent":"AS","iso_country":"CN","iso_region":"CN-46","municipality":"Haikou","scheduled_service":"yes","gps_code":"ZJHK","iata_code":"HAK","local_code":"","home_link":"","wikipedia_link":"https://en.wikipedia.org/wiki/Haikou_Meilan_International_Airport","keywords":"ZGHK"}},{"geometry":{"type":"Point","coordinates":[109.41200256347656,18.302900314331055]},"type":"Feature","properties":{"id":27202,"ident":"ZJSY","name":"Sanya Phoenix International Airport","continent":"AS","iso_country":"CN","iso_region":"CN-46","municipality":"Sanya","scheduled_service":"yes","gps_code":"ZJSY","iata_code":"SYX","local_code":"","home_link":"","wikipedia_link":"https://en.wikipedia.org/wiki/Sanya_Phoenix_International_Airport","keywords":""}},{"geometry":{"type":"Point","coordinates":[108.751999,34.447102]},"type":"Feature","properties":{"id":27205,"ident":"ZLXY","name":"Xi'an Xianyang International Airport","continent":"AS","iso_country":"CN","iso_region":"CN-61","municipality":"Xi'an","scheduled_service":"yes","gps_code":"ZLXY","iata_code":"XIY","local_code":"","home_link":"http://www.xxia.com/","wikipedia_link":"https://en.wikipedia.org/wiki/Xi'an_Xianyang_International_Airport","keywords":"西安咸阳国际机场, Xian"}},{"geometry":{"type":"Point","coordinates":[106.766998,47.843102]},"type":"Feature","properties":{"id":27212,"ident":"ZMUB","name":"Chinggis Khaan International Airport","continent":"AS","iso_country":"MN","iso_region":"MN-1","municipality":"Ulan Bator","scheduled_service":"yes","gps_code":"ZMUB","iata_code":"ULN","local_code":"","home_link":"","wikipedia_link":"https://en.wikipedia.org/wiki/Chinggis_Khaan_International_Airport","keywords":"Genghis Khan, Buyant Ukhaa Airport"}},{"geometry":{"type":"Point","coordinates":[102.9291667,25.1019444]},"type":"Feature","properties":{"id":27214,"ident":"ZPPP","name":"Kunming Changshui International Airport","continent":"AS","iso_country":"CN","iso_region":"CN-53","municipality":"Kunming","scheduled_service":"yes","gps_code":"ZPPP","iata_code":"KMG","local_code":"","home_link":"","wikipedia_link":"https://en.wikipedia.org/wiki/Kunming_Changshui_International_Airport","keywords":""}},{"geometry":{"type":"Point","coordinates":[118.12799835205078,24.54400062561035]},"type":"Feature","properties":{"id":27215,"ident":"ZSAM","name":"Xiamen Gaoqi International Airport","continent":"AS","iso_country":"CN","iso_region":"CN-35","municipality":"Xiamen","scheduled_service":"yes","gps_code":"ZSAM","iata_code":"XMN","local_code":"","home_link":"http://www.xiagc.com.cn/enweb/","wikipedia_link":"https://en.wikipedia.org/wiki/Xiamen_Gaoqi_International_Airport","keywords":"厦门高崎国际机场"}},{"geometry":{"type":"Point","coordinates":[119.66300201416016,25.935100555419922]},"type":"Feature","properties":{"id":27217,"ident":"ZSFZ","name":"Fuzhou Changle International Airport","continent":"AS","iso_country":"CN","iso_region":"CN-35","municipality":"Fuzhou","scheduled_service":"yes","gps_code":"ZSFZ","iata_code":"FOC","local_code":"","home_link":"http://www.xiafz.com.cn/en/index.asp","wikipedia_link":"https://en.wikipedia.org/wiki/Fuzhou_Changle_International_Airport","keywords":""}},{"geometry":{"type":"Point","coordinates":[120.43399810791016,30.22949981689453]},"type":"Feature","properties":{"id":27218,"ident":"ZSHC","name":"Hangzhou Xiaoshan International Airport","continent":"AS","iso_country":"CN","iso_region":"CN-33","municipality":"Hangzhou","scheduled_service":"yes","gps_code":"ZSHC","iata_code":"HGH","local_code":"","home_link":"http://www.hzairport.com/","wikipedia_link":"https://en.wikipedia.org/wiki/Hangzhou_Xiaoshan_International_Airport","keywords":"Hang Zhou, 杭州萧山国际机场"}},{"geometry":{"type":"Point","coordinates":[117.21600341796875,36.857200622558594]},"type":"Feature","properties":{"id":27219,"ident":"ZSJN","name":"Yaoqiang Airport","continent":"AS","iso_country":"CN","iso_region":"CN-37","municipality":"Jinan","scheduled_service":"yes","gps_code":"ZSJN","iata_code":"TNA","local_code":"","home_link":"","wikipedia_link":"https://en.wikipedia.org/wiki/Jinan_Yaoqiang_Airport","keywords":""}},{"geometry":{"type":"Point","coordinates":[121.46199798583984,29.82670021057129]},"type":"Feature","properties":{"id":27220,"ident":"ZSNB","name":"Ningbo Lishe International Airport","continent":"AS","iso_country":"CN","iso_region":"CN-33","municipality":"Ningbo","scheduled_service":"yes","gps_code":"ZSNB","iata_code":"NGB","local_code":"","home_link":"","wikipedia_link":"https://en.wikipedia.org/wiki/Ningbo_Lishe_International_Airport","keywords":""}},{"geometry":{"type":"Point","coordinates":[118.86199951171875,31.742000579833984]},"type":"Feature","properties":{"id":27221,"ident":"ZSNJ","name":"Nanjing Lukou Airport","continent":"AS","iso_country":"CN","iso_region":"CN-32","municipality":"Nanjing","scheduled_service":"yes","gps_code":"ZSNJ","iata_code":"NKG","local_code":"","home_link":"","wikipedia_link":"https://en.wikipedia.org/wiki/Nanjing_Lukou_International_Airport","keywords":""}},{"geometry":{"type":"Point","coordinates":[121.80500030517578,31.143400192260742]},"type":"Feature","properties":{"id":27223,"ident":"ZSPD","name":"Shanghai Pudong International Airport","continent":"AS","iso_country":"CN","iso_region":"CN-31","municipality":"Shanghai","scheduled_service":"yes","gps_code":"ZSPD","iata_code":"PVG","local_code":"","home_link":"","wikipedia_link":"https://en.wikipedia.org/wiki/Shanghai_Pudong_International_Airport","keywords":""}},{"geometry":{"type":"Point","coordinates":[121.33599853515625,31.197900772094727]},"type":"Feature","properties":{"id":27225,"ident":"ZSSS","name":"Shanghai Hongqiao International Airport","continent":"AS","iso_country":"CN","iso_region":"CN-31","municipality":"Shanghai","scheduled_service":"yes","gps_code":"ZSSS","iata_code":"SHA","local_code":"","home_link":"","wikipedia_link":"https://en.wikipedia.org/wiki/Shanghai_Hongqiao_International_Airport","keywords":""}},{"geometry":{"type":"Point","coordinates":[120.851997,27.912201]},"type":"Feature","properties":{"id":32672,"ident":"ZSWZ","name":"Wenzhou Longwan International Airport","continent":"AS","iso_country":"CN","iso_region":"CN-33","municipality":"Wenzhou","scheduled_service":"yes","gps_code":"ZSWZ","iata_code":"WNZ","local_code":"","home_link":"","wikipedia_link":"https://en.wikipedia.org/wiki/Wenzhou_Longwan_International_Airport","keywords":"温州永强机场, Wenzhou Yongqiang Airport"}},{"geometry":{"type":"Point","coordinates":[106.64199829101562,29.719200134277344]},"type":"Feature","properties":{"id":27228,"ident":"ZUCK","name":"Chongqing Jiangbei International Airport","continent":"AS","iso_country":"CN","iso_region":"CN-50","municipality":"Chongqing","scheduled_service":"yes","gps_code":"ZUCK","iata_code":"CKG","local_code":"","home_link":"","wikipedia_link":"https://en.wikipedia.org/wiki/Chongqing_Jiangbei_International_Airport","keywords":""}},{"geometry":{"type":"Point","coordinates":[106.8010025024414,26.53849983215332]},"type":"Feature","properties":{"id":27229,"ident":"ZUGY","name":"Longdongbao Airport","continent":"AS","iso_country":"CN","iso_region":"CN-52","municipality":"Guiyang","scheduled_service":"yes","gps_code":"ZUGY","iata_code":"KWE","local_code":"","home_link":"","wikipedia_link":"https://en.wikipedia.org/wiki/Guiyang_Longdongbao_Airport","keywords":"Kaiyang Guiyang Air Base, Guiyang Air Base"}},{"geometry":{"type":"Point","coordinates":[103.9469985961914,30.578500747680664]},"type":"Feature","properties":{"id":27230,"ident":"ZUUU","name":"Chengdu Shuangliu International Airport","continent":"AS","iso_country":"CN","iso_region":"CN-51","municipality":"Chengdu","scheduled_service":"yes","gps_code":"ZUUU","iata_code":"CTU","local_code":"","home_link":"http://www.cdairport.com/cdairport/en_front/index.jsp","wikipedia_link":"https://en.wikipedia.org/wiki/Chengdu_Shuangliu_International_Airport","keywords":"成都双流国际机场"}},{"geometry":{"type":"Point","coordinates":[87.47419738769531,43.907100677490234]},"type":"Feature","properties":{"id":27236,"ident":"ZWWW","name":"Ürümqi Diwopu International Airport","continent":"AS","iso_country":"CN","iso_region":"CN-65","municipality":"Ürümqi","scheduled_service":"yes","gps_code":"ZWWW","iata_code":"URC","local_code":"","home_link":"","wikipedia_link":"https://en.wikipedia.org/wiki/%C3%9Cr%C3%BCmqi_Diwopu_International_Airport","keywords":""}},{"geometry":{"type":"Point","coordinates":[126.25,45.6234016418457]},"type":"Feature","properties":{"id":27238,"ident":"ZYHB","name":"Taiping Airport","continent":"AS","iso_country":"CN","iso_region":"CN-23","municipality":"Harbin","scheduled_service":"yes","gps_code":"ZYHB","iata_code":"HRB","local_code":"","home_link":"","wikipedia_link":"https://en.wikipedia.org/wiki/Harbin_Taiping_International_Airport","keywords":""}},{"geometry":{"type":"Point","coordinates":[121.53900146484375,38.9656982421875]},"type":"Feature","properties":{"id":27242,"ident":"ZYTL","name":"Zhoushuizi Airport","continent":"AS","iso_country":"CN","iso_region":"CN-21","municipality":"Dalian","scheduled_service":"yes","gps_code":"ZYTL","iata_code":"DLC","local_code":"","home_link":"","wikipedia_link":"https://en.wikipedia.org/wiki/Dalian_Zhoushuizi_International_Airport","keywords":"Dalian Air Base"}},{"geometry":{"type":"Point","coordinates":[123.48300170898438,41.639801025390625]},"type":"Feature","properties":{"id":27243,"ident":"ZYTX","name":"Taoxian Airport","continent":"AS","iso_country":"CN","iso_region":"CN-21","municipality":"Shenyang","scheduled_service":"yes","gps_code":"ZYTX","iata_code":"SHE","local_code":"","home_link":"","wikipedia_link":"https://en.wikipedia.org/wiki/Shenyang_Taoxian_International_Airport","keywords":""}},{"geometry":{"type":"Point","coordinates":[118.359001,24.4279]},"type":"Feature","properties":{"id":5510,"ident":"RCBS","name":"Kinmen Airport","continent":"AS","iso_country":"TW","iso_region":"TW-X-KM","municipality":"Shang-I","scheduled_service":"yes","gps_code":"RCBS","iata_code":"KNH","local_code":"","home_link":"http://www.kma.gov.tw/","wikipedia_link":"https://en.wikipedia.org/wiki/Kinmen_Airport","keywords":"Shang Yi Airport, 金門尚義機場, 金门尚义机场, Jīnmén Shàngyì jīchǎng"}},{"geometry":{"type":"Point","coordinates":[120.3499984741211,22.57710075378418]},"type":"Feature","properties":{"id":5516,"ident":"RCKH","name":"Kaohsiung International Airport","continent":"AS","iso_country":"TW","iso_region":"TW-KHH","municipality":"Kaohsiung City","scheduled_service":"yes","gps_code":"RCKH","iata_code":"KHH","local_code":"","home_link":"http://www.kia.gov.tw/english/e_index.asp","wikipedia_link":"https://en.wikipedia.org/wiki/Kaohsiung_International_Airport","keywords":"Siaogang International Airport, 高雄國際航空站, 小港國際機場"}},{"geometry":{"type":"Point","coordinates":[121.233002,25.0777]},"type":"Feature","properties":{"id":5528,"ident":"RCTP","name":"Taiwan Taoyuan International Airport","continent":"AS","iso_country":"TW","iso_region":"TW-TAO","municipality":"Taipei","scheduled_service":"yes","gps_code":"RCTP","iata_code":"TPE","local_code":"","home_link":"http://www.taoyuan-airport.com/","wikipedia_link":"https://zh.wikipedia.org/wiki/%E8%87%BA%E7%81%A3%E6%A1%83%E5%9C%92%E5%9C%8B%E9%9A%9B%E6%A9%9F%E5%A0%B4","keywords":"Taiwan Taoyuan International Airport, 臺灣桃園國際機場"}},{"geometry":{"type":"Point","coordinates":[140.386001587,35.7647018433]},"type":"Feature","properties":{"id":5531,"ident":"RJAA","name":"Narita International Airport","continent":"AS","iso_country":"JP","iso_region":"JP-12","municipality":"Tokyo","scheduled_service":"yes","gps_code":"RJAA","iata_code":"NRT","local_code":"","home_link":"","wikipedia_link":"https://en.wikipedia.org/wiki/Narita_International_Airport","keywords":"TYO, Tokyo Narita Airport, New Tokyo International Airport"}},{"geometry":{"type":"Point","coordinates":[135.24400329589844,34.42729949951172]},"type":"Feature","properties":{"id":5536,"ident":"RJBB","name":"Kansai International Airport","continent":"AS","iso_country":"JP","iso_region":"JP-27","municipality":"Osaka","scheduled_service":"yes","gps_code":"RJBB","iata_code":"KIX","local_code":"","home_link":"http://www.kansai-airport.or.jp/en/index.asp","wikipedia_link":"https://en.wikipedia.org/wiki/Kansai_International_Airport","keywords":"OSA"}},{"geometry":{"type":"Point","coordinates":[141.69200134277344,42.77519989013672]},"type":"Feature","properties":{"id":5544,"ident":"RJCC","name":"New Chitose Airport","continent":"AS","iso_country":"JP","iso_region":"JP-01","municipality":"Chitose / Tomakomai","scheduled_service":"yes","gps_code":"RJCC","iata_code":"CTS","local_code":"","home_link":"http://www.new-chitose-airport.jp/language/english/","wikipedia_link":"https://en.wikipedia.org/wiki/New_Chitose_Airport","keywords":""}},{"geometry":{"type":"Point","coordinates":[130.4510040283203,33.585899353027344]},"type":"Feature","properties":{"id":5564,"ident":"RJFF","name":"Fukuoka Airport","continent":"AS","iso_country":"JP","iso_region":"JP-40","municipality":"Fukuoka","scheduled_service":"yes","gps_code":"RJFF","iata_code":"FUK","local_code":"","home_link":"http://www.fuk-ab.co.jp/english/frame_index.html","wikipedia_link":"https://en.wikipedia.org/wiki/Fukuoka_Airport","keywords":"Itazuke Air Base"}},{"geometry":{"type":"Point","coordinates":[130.718994140625,31.80340003967285]},"type":"Feature","properties":{"id":5566,"ident":"RJFK","name":"Kagoshima Airport","continent":"AS","iso_country":"JP","iso_region":"JP-46","municipality":"Kagoshima","scheduled_service":"yes","gps_code":"RJFK","iata_code":"KOJ","local_code":"","home_link":"","wikipedia_link":"https://en.wikipedia.org/wiki/Kagoshima_Airport","keywords":""}},{"geometry":{"type":"Point","coordinates":[136.80499267578125,34.8583984375]},"type":"Feature","properties":{"id":5576,"ident":"RJGG","name":"Chubu Centrair International Airport","continent":"AS","iso_country":"JP","iso_region":"JP-23","municipality":"Tokoname","scheduled_service":"yes","gps_code":"RJGG","iata_code":"NGO","local_code":"","home_link":"","wikipedia_link":"https://en.wikipedia.org/wiki/Ch%C5%ABbu_Centrair_International_Airport","keywords":""}},{"geometry":{"type":"Point","coordinates":[138.18775177,34.7960434679]},"type":"Feature","properties":{"id":299238,"ident":"rjns","name":"Mt. Fuji Shizuoka Airport","continent":"AS","iso_country":"JP","iso_region":"JP-22","municipality":"Makinohara / Shimada","scheduled_service":"yes","gps_code":"RJNS","iata_code":"FSZ","local_code":"","home_link":"http://www.mtfuji-shizuokaairport.jp/english/index.html","wikipedia_link":"https://en.wikipedia.org/wiki/Shizuoka_Airport","keywords":""}},{"geometry":{"type":"Point","coordinates":[135.43800354003906,34.785499572753906]},"type":"Feature","properties":{"id":5598,"ident":"RJOO","name":"Osaka International Airport","continent":"AS","iso_country":"JP","iso_region":"JP-27","municipality":"Osaka","scheduled_service":"yes","gps_code":"RJOO","iata_code":"ITM","local_code":"","home_link":"","wikipedia_link":"https://en.wikipedia.org/wiki/Osaka_International_Airport","keywords":"OSA, Itami"}},{"geometry":{"type":"Point","coordinates":[139.779999,35.552299]},"type":"Feature","properties":{"id":5627,"ident":"RJTT","name":"Tokyo Haneda International Airport","continent":"AS","iso_country":"JP","iso_region":"JP-13","municipality":"Tokyo","scheduled_service":"yes","gps_code":"RJTT","iata_code":"HND","local_code":"","home_link":"http://www.haneda-airport.jp/","wikipedia_link":"https://en.wikipedia.org/wiki/Tokyo_International_Airport","keywords":"TYO, Haneda"}},{"geometry":{"type":"Point","coordinates":[139.34800720214844,35.74850082397461]},"type":"Feature","properties":{"id":5629,"ident":"RJTY","name":"Yokota Air Base","continent":"AS","iso_country":"JP","iso_region":"JP-13","municipality":"Fussa","scheduled_service":"no","gps_code":"RJTY","iata_code":"OKO","local_code":"","home_link":"","wikipedia_link":"https://en.wikipedia.org/wiki/Yokota_Air_Base","keywords":""}},{"geometry":{"type":"Point","coordinates":[126.382814,34.991406]},"type":"Feature","properties":{"id":302303,"ident":"RKJB","name":"Muan International Airport","continent":"AS","iso_country":"KR","iso_region":"KR-46","municipality":"Piseo-ri (Muan)","scheduled_service":"yes","gps_code":"RKJB","iata_code":"MWX","local_code":"","home_link":"http://muan.airport.co.kr/doc/muan_eng/","wikipedia_link":"https://en.wikipedia.org/wiki/Muan_International_Airport","keywords":"Gwangju, Mokpo, Muan, MWX, RKJB"}},{"geometry":{"type":"Point","coordinates":[126.61599731445312,35.90380096435547]},"type":"Feature","properties":{"id":5631,"ident":"RKJK","name":"Kunsan Air Base","continent":"AS","iso_country":"KR","iso_region":"KR-45","municipality":"Kunsan","scheduled_service":"yes","gps_code":"RKJK","iata_code":"KUV","local_code":"","home_link":"","wikipedia_link":"https://en.wikipedia.org/wiki/Gunsan_Airport","keywords":""}},{"geometry":{"type":"Point","coordinates":[126.49299621582031,33.51129913330078]},"type":"Feature","properties":{"id":5639,"ident":"RKPC","name":"Jeju International Airport","continent":"AS","iso_country":"KR","iso_region":"KR-49","municipality":"Jeju City","scheduled_service":"yes","gps_code":"RKPC","iata_code":"CJU","local_code":"","home_link":"","wikipedia_link":"https://en.wikipedia.org/wiki/Jeju_International_Airport","keywords":""}},{"geometry":{"type":"Point","coordinates":[128.93800354,35.1795005798]},"type":"Feature","properties":{"id":5642,"ident":"RKPK","name":"Gimhae International Airport","continent":"AS","iso_country":"KR","iso_region":"KR-26","municipality":"Busan","scheduled_service":"yes","gps_code":"RKPK","iata_code":"PUS","local_code":"","home_link":"http://gimhae.airport.co.kr/eng/index.jsp","wikipedia_link":"https://en.wikipedia.org/wiki/Gimhae_International_Airport","keywords":"Kimhae, Pusan"}},{"geometry":{"type":"Point","coordinates":[126.45099639892578,37.46910095214844]},"type":"Feature","properties":{"id":5653,"ident":"RKSI","name":"Incheon International Airport","continent":"AS","iso_country":"KR","iso_region":"KR-28","municipality":"Seoul","scheduled_service":"yes","gps_code":"RKSI","iata_code":"ICN","local_code":"","home_link":"","wikipedia_link":"https://en.wikipedia.org/wiki/Incheon_International_Airport","keywords":""}},{"geometry":{"type":"Point","coordinates":[127.029999,37.090599]},"type":"Feature","properties":{"id":5655,"ident":"RKSO","name":"Osan Air Base","continent":"AS","iso_country":"KR","iso_region":"KR-41","municipality":"","scheduled_service":"no","gps_code":"RKSO","iata_code":"OSN","local_code":"","home_link":"","wikipedia_link":"https://en.wikipedia.org/wiki/Osan_Air_Base","keywords":""}},{"geometry":{"type":"Point","coordinates":[126.791,37.5583]},"type":"Feature","properties":{"id":5656,"ident":"RKSS","name":"Gimpo International Airport","continent":"AS","iso_country":"KR","iso_region":"KR-11","municipality":"Seoul","scheduled_service":"yes","gps_code":"RKSS","iata_code":"GMP","local_code":"","home_link":"http://gimpo.airport.co.kr/eng/index.jsp","wikipedia_link":"https://en.wikipedia.org/wiki/Gimpo_International_Airport","keywords":""}},{"geometry":{"type":"Point","coordinates":[127.498741,36.717008]},"type":"Feature","properties":{"id":5663,"ident":"RKTU","name":"Cheongju International Airport/Cheongju Air Base (K-59/G-513)","continent":"AS","iso_country":"KR","iso_region":"KR-43","municipality":"Cheongju","scheduled_service":"yes","gps_code":"RKTU","iata_code":"CJJ","local_code":"","home_link":"http://cheongju.airport.co.kr/doc/cheongju_eng/","wikipedia_link":"https://en.wikipedia.org/wiki/Cheongju_Airport","keywords":""}},{"geometry":{"type":"Point","coordinates":[127.646003723,26.1958007812]},"type":"Feature","properties":{"id":5671,"ident":"ROAH","name":"Naha Airport","continent":"AS","iso_country":"JP","iso_region":"JP-47","municipality":"Naha","scheduled_service":"yes","gps_code":"ROAH","iata_code":"OKA","local_code":"","home_link":"http://www.naha-airport.co.jp/","wikipedia_link":"https://en.wikipedia.org/wiki/Naha_Airport","keywords":"那覇空港, Naha Kūkō?, AHA, Naha AFB"}},{"geometry":{"type":"Point","coordinates":[127.767998,26.3556]},"type":"Feature","properties":{"id":5673,"ident":"RODN","name":"Kadena Air Base","continent":"AS","iso_country":"JP","iso_region":"JP-47","municipality":"","scheduled_service":"no","gps_code":"RODN","iata_code":"DNA","local_code":"","home_link":"","wikipedia_link":"https://en.wikipedia.org/wiki/Kadena_Air_Base","keywords":""}},{"geometry":{"type":"Point","coordinates":[120.559998,15.186]},"type":"Feature","properties":{"id":5687,"ident":"RPLC","name":"Diosdado Macapagal International Airport","continent":"AS","iso_country":"PH","iso_region":"PH-PAM","municipality":"Angeles/Mabalacat","scheduled_service":"yes","gps_code":"RPLC","iata_code":"CRK","local_code":"","home_link":"http://www.clarkairport.com/","wikipedia_link":"https://en.wikipedia.org/wiki/Diosdado_Macapagal_International_Airport","keywords":"Clark International Airport, Paliparang Pandaigdig ng Diosdado Macapagal, Clark Air Base"}},{"geometry":{"type":"Point","coordinates":[121.019997,14.5086]},"type":"Feature","properties":{"id":5689,"ident":"RPLL","name":"Ninoy Aquino International Airport","continent":"AS","iso_country":"PH","iso_region":"PH-U-A","municipality":"Manila","scheduled_service":"yes","gps_code":"RPLL","iata_code":"MNL","local_code":"","home_link":"","wikipedia_link":"https://en.wikipedia.org/wiki/Ninoy_Aquino_International_Airport","keywords":"Manila International Airport"}},{"geometry":{"type":"Point","coordinates":[125.64600372314453,7.1255202293396]},"type":"Feature","properties":{"id":5697,"ident":"RPMD","name":"Francisco Bangoy International Airport","continent":"AS","iso_country":"PH","iso_region":"PH-DAV","municipality":"Davao City","scheduled_service":"yes","gps_code":"RPMD","iata_code":"DVO","local_code":"","home_link":"","wikipedia_link":"https://en.wikipedia.org/wiki/Francisco_Bangoy_International_Airport","keywords":"Davao International Airport"}},{"geometry":{"type":"Point","coordinates":[123.97899627686,10.307499885559]},"type":"Feature","properties":{"id":5742,"ident":"RPVM","name":"Mactan Cebu International Airport","continent":"AS","iso_country":"PH","iso_region":"PH-CEB","municipality":"Lapu-Lapu City","scheduled_service":"yes","gps_code":"RPVM","iata_code":"CEB","local_code":"","home_link":"http://www.mactan-cebuairport.com.ph/","wikipedia_link":"https://en.wikipedia.org/wiki/Mactan-Cebu_International_Airport","keywords":""}},{"geometry":{"type":"Point","coordinates":[45.698601,43.388302]},"type":"Feature","properties":{"id":42924,"ident":"RU-0035","name":"Grozny North Airport","continent":"EU","iso_country":"RU","iso_region":"RU-CE","municipality":"Grozny","scheduled_service":"yes","gps_code":"URMG","iata_code":"GRV","local_code":"","home_link":"","wikipedia_link":"https://en.wikipedia.org/wiki/Grozny_Airport","keywords":"Grozny Severny, Grozny, Аэропорт Грозный Северный, Аэропорт Грозный"}},{"geometry":{"type":"Point","coordinates":[-58.5358,-34.8222]},"type":"Feature","properties":{"id":5781,"ident":"SAEZ","name":"Ministro Pistarini International Airport","continent":"SA","iso_country":"AR","iso_region":"AR-B","municipality":"Buenos Aires","scheduled_service":"yes","gps_code":"SAEZ","iata_code":"EZE","local_code":"EZE","home_link":"http://www.aa2000.com.ar/index.php","wikipedia_link":"https://en.wikipedia.org/wiki/Ministro_Pistarini_International_Airport","keywords":"BUE"}},{"geometry":{"type":"Point","coordinates":[-48.4762992859,-1.3792500495900002]},"type":"Feature","properties":{"id":5867,"ident":"SBBE","name":"Val de Cans/Júlio Cezar Ribeiro International Airport","continent":"SA","iso_country":"BR","iso_region":"BR-PA","municipality":"Belém","scheduled_service":"yes","gps_code":"SBBE","iata_code":"BEL","local_code":"","home_link":"http://www.infraero.gov.br/index.php/br/aeroportos/para/aeroporto-internacional-de-belem.html","wikipedia_link":"https://en.wikipedia.org/wiki/Val_de_Cans_International_Airport","keywords":""}},{"geometry":{"type":"Point","coordinates":[-47.920833587646484,-15.86916732788086]},"type":"Feature","properties":{"id":5872,"ident":"SBBR","name":"Presidente Juscelino Kubistschek International Airport","continent":"SA","iso_country":"BR","iso_region":"BR-DF","municipality":"Brasília","scheduled_service":"yes","gps_code":"SBBR","iata_code":"BSB","local_code":"","home_link":"http://www.infraero.gov.br/usa/aero_prev_home.php?ai=146","wikipedia_link":"https://en.wikipedia.org/wiki/Bras%C3%ADlia_International_Airport","keywords":"http://www.infraero.gov.br/usa/aero_prev_home.php?ai=146"}},{"geometry":{"type":"Point","coordinates":[-43.97194290161133,-19.62444305419922]},"type":"Feature","properties":{"id":5882,"ident":"SBCF","name":"Tancredo Neves International Airport","continent":"SA","iso_country":"BR","iso_region":"BR-MG","municipality":"Belo Horizonte","scheduled_service":"yes","gps_code":"SBCF","iata_code":"CNF","local_code":"","home_link":"http://www.infraero.gov.br/usa/aero_prev_home.php?ai=207","wikipedia_link":"https://en.wikipedia.org/wiki/Tancredo_Neves_International_Airport","keywords":"http://www.infraero.gov.br/usa/aero_prev_home.php?ai=207"}},{"geometry":{"type":"Point","coordinates":[-49.1758003235,-25.5284996033]},"type":"Feature","properties":{"id":5891,"ident":"SBCT","name":"Afonso Pena Airport","continent":"SA","iso_country":"BR","iso_region":"BR-PR","municipality":"Curitiba","scheduled_service":"yes","gps_code":"SBCT","iata_code":"CWB","local_code":"","home_link":"","wikipedia_link":"https://en.wikipedia.org/wiki/Afonso_Pena_International_Airport","keywords":""}},{"geometry":{"type":"Point","coordinates":[-60.049702,-3.03861]},"type":"Feature","properties":{"id":5897,"ident":"SBEG","name":"Eduardo Gomes International Airport","continent":"SA","iso_country":"BR","iso_region":"BR-AM","municipality":"Manaus","scheduled_service":"yes","gps_code":"SBEG","iata_code":"MAO","local_code":"","home_link":"https://www4.infraero.gov.br/aeroportos/aeroporto-internacional-de-manaus-eduardo-gomes/","wikipedia_link":"https://en.wikipedia.org/wiki/Eduardo_Gomes_International_Airport","keywords":""}},{"geometry":{"type":"Point","coordinates":[-48.5525016784668,-27.670278549194336]},"type":"Feature","properties":{"id":5901,"ident":"SBFL","name":"Hercílio Luz International Airport","continent":"SA","iso_country":"BR","iso_region":"BR-SC","municipality":"Florianópolis","scheduled_service":"yes","gps_code":"SBFL","iata_code":"FLN","local_code":"","home_link":"http://www.infraero.gov.br/usa/aero_prev_home.php?ai=228","wikipedia_link":"https://en.wikipedia.org/wiki/Herc%C3%ADlio_Luz_International_Airport","keywords":"http://www.infraero.gov.br/usa/aero_prev_home.php?ai=228"}},{"geometry":{"type":"Point","coordinates":[-43.2505569458,-22.8099994659]},"type":"Feature","properties":{"id":5906,"ident":"SBGL","name":"Rio Galeão – Tom Jobim International Airport","continent":"SA","iso_country":"BR","iso_region":"BR-RJ","municipality":"Rio De Janeiro","scheduled_service":"yes","gps_code":"SBGL","iata_code":"GIG","local_code":"","home_link":"","wikipedia_link":"https://en.wikipedia.org/wiki/Rio_de_Janeiro-Gale%C3%A3o_International_Airport","keywords":"Galeão - Antônio Carlos Jobim International Airport"}},{"geometry":{"type":"Point","coordinates":[-46.47305679321289,-23.435556411743164]},"type":"Feature","properties":{"id":5910,"ident":"SBGR","name":"Guarulhos - Governador André Franco Montoro International Airport","continent":"SA","iso_country":"BR","iso_region":"BR-SP","municipality":"São Paulo","scheduled_service":"yes","gps_code":"SBGR","iata_code":"GRU","local_code":"","home_link":"","wikipedia_link":"https://en.wikipedia.org/wiki/S%C3%A3o_Paulo-Guarulhos_International_Airport","keywords":""}},{"geometry":{"type":"Point","coordinates":[-35.376111,-5.768056]},"type":"Feature","properties":{"id":313262,"ident":"SBSG","name":"Governador Aluízio Alves International Airport","continent":"SA","iso_country":"BR","iso_region":"BR-RN","municipality":"Natal","scheduled_service":"yes","gps_code":"SBSG","iata_code":"NAT","local_code":"","home_link":"http://www.natal.aero","wikipedia_link":"https://en.wikipedia.org/wiki/Greater_Natal_International_Airport","keywords":"Natal, Greater Natal International Airport,  Augusto Severo International Airport"}},{"geometry":{"type":"Point","coordinates":[-46.65638732910156,-23.626110076904297]},"type":"Feature","properties":{"id":5974,"ident":"SBSP","name":"Congonhas Airport","continent":"SA","iso_country":"BR","iso_region":"BR-SP","municipality":"São Paulo","scheduled_service":"yes","gps_code":"SBSP","iata_code":"CGH","local_code":"","home_link":"http://www.infraero.gov.br/usa/aero_prev_home.php?ai=219","wikipedia_link":"https://en.wikipedia.org/wiki/Congonhas-S%C3%A3o_Paulo_International_Airport","keywords":"http://www.infraero.gov.br/usa/aero_prev_home.php?ai=219"}},{"geometry":{"type":"Point","coordinates":[-38.3224983215,-12.9086112976]},"type":"Feature","properties":{"id":5977,"ident":"SBSV","name":"Deputado Luiz Eduardo Magalhães International Airport","continent":"SA","iso_country":"BR","iso_region":"BR-BA","municipality":"Salvador","scheduled_service":"yes","gps_code":"SBSV","iata_code":"SSA","local_code":"","home_link":"","wikipedia_link":"https://en.wikipedia.org/wiki/Deputado_Lu%C3%ADs_Eduardo_Magalh%C3%A3es_International_Airport","keywords":""}},{"geometry":{"type":"Point","coordinates":[-70.78579711914062,-33.393001556396484]},"type":"Feature","properties":{"id":6015,"ident":"SCEL","name":"Comodoro Arturo Merino Benítez International Airport","continent":"SA","iso_country":"CL","iso_region":"CL-RM","municipality":"Santiago","scheduled_service":"yes","gps_code":"SCEL","iata_code":"SCL","local_code":"","home_link":"http://www.aeropuertosantiago.cl/ingles/index.php","wikipedia_link":"https://en.wikipedia.org/wiki/Comodoro_Arturo_Merino_Ben%C3%ADtez_International_Airport","keywords":""}},{"geometry":{"type":"Point","coordinates":[-78.615799,-0.906833]},"type":"Feature","properties":{"id":6061,"ident":"SELT","name":"Cotopaxi International Airport","continent":"SA","iso_country":"EC","iso_region":"EC-X","municipality":"Latacunga","scheduled_service":"yes","gps_code":"SELT","iata_code":"LTX","local_code":"","home_link":"","wikipedia_link":"https://en.wikipedia.org/wiki/Cotopaxi_International_Airport","keywords":"Latacunga, Vulcano, Ecuador, Cargo, Long runway, Height"}},{"geometry":{"type":"Point","coordinates":[-78.3575,-0.129166666667]},"type":"Feature","properties":{"id":308273,"ident":"SEQM","name":"Mariscal Sucre International Airport","continent":"SA","iso_country":"EC","iso_region":"EC-P","municipality":"Quito","scheduled_service":"yes","gps_code":"SEQM","iata_code":"UIO","local_code":"UIO","home_link":"","wikipedia_link":"https://en.wikipedia.org/wiki/Mariscal_Sucre_International_Airport","keywords":"Nuevo Aeropuerto Internacional Mariscal Sucre"}},{"geometry":{"type":"Point","coordinates":[-74.1469,4.70159]},"type":"Feature","properties":{"id":6104,"ident":"SKBO","name":"El Dorado International Airport","continent":"SA","iso_country":"CO","iso_region":"CO-CUN","municipality":"Bogota","scheduled_service":"yes","gps_code":"SKBO","iata_code":"BOG","local_code":"BOG","home_link":"","wikipedia_link":"https://en.wikipedia.org/wiki/El_Dorado_International_Airport","keywords":""}},{"geometry":{"type":"Point","coordinates":[-63.135399,-17.6448]},"type":"Feature","properties":{"id":6193,"ident":"SLVR","name":"Viru Viru International Airport","continent":"SA","iso_country":"BO","iso_region":"BO-S","municipality":"Santa Cruz","scheduled_service":"yes","gps_code":"SLVR","iata_code":"VVI","local_code":"","home_link":"","wikipedia_link":"https://en.wikipedia.org/wiki/Viru_Viru_International_Airport","keywords":""}},{"geometry":{"type":"Point","coordinates":[-77.114305,-12.0219]},"type":"Feature","properties":{"id":6217,"ident":"SPIM","name":"Jorge Chávez International Airport","continent":"SA","iso_country":"PE","iso_region":"PE-LIM","municipality":"Lima","scheduled_service":"yes","gps_code":"SPJC","iata_code":"LIM","local_code":"","home_link":"http://www.lap.com.pe/","wikipedia_link":"https://en.wikipedia.org/wiki/Jorge_Ch%C3%A1vez_International_Airport","keywords":"SPIM"}},{"geometry":{"type":"Point","coordinates":[-71.9387969971,-13.535699844400002]},"type":"Feature","properties":{"id":6243,"ident":"SPZO","name":"Alejandro Velasco Astete International Airport","continent":"SA","iso_country":"PE","iso_region":"PE-CUS","municipality":"Cusco","scheduled_service":"yes","gps_code":"SPZO","iata_code":"CUZ","local_code":"","home_link":"http://www.corpac.gob.pe/","wikipedia_link":"https://en.wikipedia.org/wiki/Alejandro_Velasco_Astete_International_Airport","keywords":""}},{"geometry":{"type":"Point","coordinates":[-56.0308,-34.838402]},"type":"Feature","properties":{"id":6247,"ident":"SUMU","name":"Carrasco International /General C L Berisso Airport","continent":"SA","iso_country":"UY","iso_region":"UY-CA","municipality":"Montevideo","scheduled_service":"yes","gps_code":"SUMU","iata_code":"MVD","local_code":"","home_link":"","wikipedia_link":"https://en.wikipedia.org/wiki/Carrasco_International_Airport","keywords":""}},{"geometry":{"type":"Point","coordinates":[-64.692222,10.111111]},"type":"Feature","properties":{"id":6255,"ident":"SVBC","name":"General José Antonio Anzoategui International Airport","continent":"SA","iso_country":"VE","iso_region":"VE-B","municipality":"Barcelona","scheduled_service":"yes","gps_code":"SVBC","iata_code":"BLA","local_code":"","home_link":"http://aigdjaa.baer.gob.ve","wikipedia_link":"https://en.wikipedia.org/wiki/General_Jos%C3%A9_Antonio_Anzo%C3%A1tegui_International_Airport","keywords":"Barcelona, Puero La Cruz,Lecheria"}},{"geometry":{"type":"Point","coordinates":[-66.991222,10.601194]},"type":"Feature","properties":{"id":6300,"ident":"SVMI","name":"Simón Bolívar International Airport","continent":"SA","iso_country":"VE","iso_region":"VE-X","municipality":"Caracas","scheduled_service":"yes","gps_code":"SVMI","iata_code":"CCS","local_code":"","home_link":"http://www.aeropuerto-maiquetia.com.ve/web/","wikipedia_link":"https://en.wikipedia.org/wiki/Sim%C3%B3n_Bol%C3%ADvar_International_Airport","keywords":"Maiquetía \"Simón Bolívar\" International Airport"}},{"geometry":{"type":"Point","coordinates":[-61.531799,16.265301]},"type":"Feature","properties":{"id":6366,"ident":"TFFR","name":"Pointe-à-Pitre Le Raizet","continent":"NA","iso_country":"GP","iso_region":"GP-U-A","municipality":"Pointe-à-Pitre","scheduled_service":"yes","gps_code":"TFFR","iata_code":"PTP","local_code":"","home_link":"http://www.guadeloupe.aeroport.fr/","wikipedia_link":"https://en.wikipedia.org/wiki/Pointe-%C3%A0-Pitre_International_Airport","keywords":"Le Raizet, Les Abymes"}},{"geometry":{"type":"Point","coordinates":[-66.0018005371,18.4393997192]},"type":"Feature","properties":{"id":6384,"ident":"TJSJ","name":"Luis Munoz Marin International Airport","continent":"NA","iso_country":"PR","iso_region":"PR-U-A","municipality":"San Juan","scheduled_service":"yes","gps_code":"TJSJ","iata_code":"SJU","local_code":"SJU","home_link":"","wikipedia_link":"https://en.wikipedia.org/wiki/Luis_Mu%C3%B1oz_Mar%C3%ADn_International_Airport","keywords":"Isla Verde"}},{"geometry":{"type":"Point","coordinates":[10.438611,36.075833]},"type":"Feature","properties":{"id":44483,"ident":"TN-0002","name":"Enfidha - Hammamet International Airport","continent":"AF","iso_country":"TN","iso_region":"TN-51","municipality":"Enfidha","scheduled_service":"yes","gps_code":"DTNH","iata_code":"NBE","local_code":"DTNH","home_link":"http://www.enfidhahammametairport.com/","wikipedia_link":"https://en.wikipedia.org/wiki/Enfidha_%E2%80%93_Hammamet_International_Airport","keywords":"DTNH"}},{"geometry":{"type":"Point","coordinates":[-63.1088981628,18.041000366200002]},"type":"Feature","properties":{"id":6406,"ident":"TNCM","name":"Princess Juliana International Airport","continent":"NA","iso_country":"SX","iso_region":"SX-U-A","municipality":"Saint Martin","scheduled_service":"yes","gps_code":"TNCM","iata_code":"SXM","local_code":"","home_link":"","wikipedia_link":"https://en.wikipedia.org/wiki/Princess_Juliana_International_Airport","keywords":""}},{"geometry":{"type":"Point","coordinates":[77.04049682617188,43.35210037231445]},"type":"Feature","properties":{"id":6421,"ident":"UAAA","name":"Almaty Airport","continent":"AS","iso_country":"KZ","iso_region":"KZ-ALM","municipality":"Almaty","scheduled_service":"yes","gps_code":"UAAA","iata_code":"ALA","local_code":"","home_link":"","wikipedia_link":"https://en.wikipedia.org/wiki/Almaty_International_Airport","keywords":"Alma Ata"}},{"geometry":{"type":"Point","coordinates":[71.46690368652344,51.02220153808594]},"type":"Feature","properties":{"id":6423,"ident":"UACC","name":"Astana International Airport","continent":"AS","iso_country":"KZ","iso_region":"KZ-AKM","municipality":"Astana","scheduled_service":"yes","gps_code":"UACC","iata_code":"TSE","local_code":"","home_link":"","wikipedia_link":"https://en.wikipedia.org/wiki/Astana_International_Airport","keywords":""}},{"geometry":{"type":"Point","coordinates":[74.4776000977,43.0612983704]},"type":"Feature","properties":{"id":6426,"ident":"UAFM","name":"Manas International Airport","continent":"AS","iso_country":"KG","iso_region":"KG-C","municipality":"Bishkek","scheduled_service":"yes","gps_code":"UCFM","iata_code":"FRU","local_code":"","home_link":"","wikipedia_link":"https://en.wikipedia.org/wiki/Manas_International_Airport","keywords":"UAFM, Manas Air Force Base"}},{"geometry":{"type":"Point","coordinates":[73.33439636230469,49.670799255371094]},"type":"Feature","properties":{"id":6431,"ident":"UAKK","name":"Sary-Arka Airport","continent":"AS","iso_country":"KZ","iso_region":"KZ-KAR","municipality":"Karaganda","scheduled_service":"yes","gps_code":"UAKK","iata_code":"KGF","local_code":"","home_link":"","wikipedia_link":"https://en.wikipedia.org/wiki/Sary-Arka_Airport","keywords":""}},{"geometry":{"type":"Point","coordinates":[50.04669952392578,40.467498779296875]},"type":"Feature","properties":{"id":6440,"ident":"UBBB","name":"Heydar Aliyev International Airport","continent":"AS","iso_country":"AZ","iso_region":"AZ-BA","municipality":"Baku","scheduled_service":"yes","gps_code":"UBBB","iata_code":"GYD","local_code":"","home_link":"http://www.airport-baku.com/","wikipedia_link":"https://en.wikipedia.org/wiki/Heydar_Aliyev_International_Airport","keywords":"BAK, Bina International Airport, Heydər Əliyev adına beynəlxalq hava limanı"}},{"geometry":{"type":"Point","coordinates":[44.3959007263,40.1473007202]},"type":"Feature","properties":{"id":6446,"ident":"UDYZ","name":"Zvartnots International Airport","continent":"AS","iso_country":"AM","iso_region":"AM-ER","municipality":"Yerevan","scheduled_service":"yes","gps_code":"UDYZ","iata_code":"EVN","local_code":"","home_link":"http://www.aia-zvartnots.aero/","wikipedia_link":"https://en.wikipedia.org/wiki/Zvartnots_International_Airport","keywords":"UGEE, Erevan Airport, Erivan Airport, Аэропорт Звартноц, Аэропорт Ереван"}},{"geometry":{"type":"Point","coordinates":[44.95470047,41.6692008972]},"type":"Feature","properties":{"id":6453,"ident":"UGTB","name":"Tbilisi International Airport","continent":"AS","iso_country":"GE","iso_region":"GE-TB","municipality":"Tbilisi","scheduled_service":"yes","gps_code":"UGTB","iata_code":"TBS","local_code":"","home_link":"http://www.tbilisiairport.com/","wikipedia_link":"https://en.wikipedia.org/wiki/Tbilisi_International_Airport","keywords":"თბილისის საერთაშორისო აეროპორტი"}},{"geometry":{"type":"Point","coordinates":[135.18800354004,48.52799987793]},"type":"Feature","properties":{"id":6455,"ident":"UHHH","name":"Khabarovsk-Novy Airport","continent":"AS","iso_country":"RU","iso_region":"RU-KHA","municipality":"Khabarovsk","scheduled_service":"yes","gps_code":"UHHH","iata_code":"KHV","local_code":"","home_link":"http://airkhv.ru/","wikipedia_link":"https://en.wikipedia.org/wiki/Khabarovsk_Novy_Airport","keywords":"Аэропорт Хабаровск-Новый"}},{"geometry":{"type":"Point","coordinates":[30.894699096679688,50.345001220703125]},"type":"Feature","properties":{"id":6467,"ident":"UKBB","name":"Boryspil International Airport","continent":"EU","iso_country":"UA","iso_region":"UA-32","municipality":"Kiev","scheduled_service":"yes","gps_code":"UKBB","iata_code":"KBP","local_code":"","home_link":"http://www.airport-borispol.kiev.ua/","wikipedia_link":"https://en.wikipedia.org/wiki/Boryspil_International_Airport","keywords":"Borispol, Міжнародний аеропорт \"Бориспіль"}},{"geometry":{"type":"Point","coordinates":[33.975101470947266,45.05220031738281]},"type":"Feature","properties":{"id":6474,"ident":"UKFF","name":"Simferopol International Airport","continent":"EU","iso_country":"UA","iso_region":"UA-43","municipality":"Simferopol","scheduled_service":"yes","gps_code":"UKFF","iata_code":"SIP","local_code":"","home_link":"http://www.airport.crimea.ua/","wikipedia_link":"https://en.wikipedia.org/wiki/Simferopol_International_Airport","keywords":"Міжнародний аеропорт \"Сімферополь"}},{"geometry":{"type":"Point","coordinates":[36.290000915527344,49.924800872802734]},"type":"Feature","properties":{"id":6476,"ident":"UKHH","name":"Kharkiv International Airport","continent":"EU","iso_country":"UA","iso_region":"UA-63","municipality":"Kharkiv","scheduled_service":"yes","gps_code":"UKHH","iata_code":"HRK","local_code":"","home_link":"http://www.airport.kharkov.ua/","wikipedia_link":"https://en.wikipedia.org/wiki/Kharkiv_International_Airport","keywords":"Osnova International Airport, Міжнародний аеропорт \"Харків"}},{"geometry":{"type":"Point","coordinates":[30.67650032043457,46.42679977416992]},"type":"Feature","properties":{"id":6487,"ident":"UKOO","name":"Odessa International Airport","continent":"EU","iso_country":"UA","iso_region":"UA-51","municipality":"Odessa","scheduled_service":"yes","gps_code":"UKOO","iata_code":"ODS","local_code":"","home_link":"http://www.airport.od.ua/","wikipedia_link":"https://en.wikipedia.org/wiki/Odessa_International_Airport","keywords":"Odesa Central, Міжнародний аеропорт Одеса"}},{"geometry":{"type":"Point","coordinates":[30.262500762939453,59.80030059814453]},"type":"Feature","properties":{"id":6489,"ident":"ULLI","name":"Pulkovo Airport","continent":"EU","iso_country":"RU","iso_region":"RU-SPE","municipality":"St. Petersburg","scheduled_service":"yes","gps_code":"ULLI","iata_code":"LED","local_code":"","home_link":"http://www.pulkovoairport.ru/","wikipedia_link":"https://en.wikipedia.org/wiki/Pulkovo_Airport","keywords":"Аэропо́рт Пу́лково, Leningrad, Shosseynaya Airport, Saint Petersburg, Petrograd"}},{"geometry":{"type":"Point","coordinates":[28.030700683594,53.882499694824]},"type":"Feature","properties":{"id":6501,"ident":"UMMS","name":"Minsk National Airport","continent":"EU","iso_country":"BY","iso_region":"BY-MI","municipality":"Minsk","scheduled_service":"yes","gps_code":"UMMS","iata_code":"MSQ","local_code":"","home_link":"http://airport.by/en","wikipedia_link":"https://en.wikipedia.org/wiki/Minsk_National_Airport","keywords":"Нацыянальны аэрапорт, Minsk 2 Airport"}},{"geometry":{"type":"Point","coordinates":[92.493301,56.172901]},"type":"Feature","properties":{"id":6506,"ident":"UNKL","name":"Yemelyanovo Airport","continent":"EU","iso_country":"RU","iso_region":"RU-KYA","municipality":"Krasnoyarsk","scheduled_service":"yes","gps_code":"UNKL","iata_code":"KJA","local_code":"","home_link":"http://www.kja.aero","wikipedia_link":"https://en.wikipedia.org/wiki/Krasnoyarsk_Yemelyanovo_Airport","keywords":""}},{"geometry":{"type":"Point","coordinates":[82.650703430176,55.012599945068]},"type":"Feature","properties":{"id":6507,"ident":"UNNT","name":"Tolmachevo Airport","continent":"AS","iso_country":"RU","iso_region":"RU-NVS","municipality":"Novosibirsk","scheduled_service":"yes","gps_code":"UNNT","iata_code":"OVB","local_code":"","home_link":"http://eng.tolmachevo.ru/","wikipedia_link":"https://en.wikipedia.org/wiki/Tolmachevo_Airport","keywords":""}},{"geometry":{"type":"Point","coordinates":[39.924722,47.493888]},"type":"Feature","properties":{"id":326363,"ident":"URRP","name":"Platov International Airport","continent":"EU","iso_country":"RU","iso_region":"RU-ROS","municipality":"Rostov-on-Don","scheduled_service":"yes","gps_code":"URRP","iata_code":"ROV","local_code":"","home_link":"","wikipedia_link":"https://en.wikipedia.org/wiki/Platov_International_Airport","keywords":"УРРП, Международный аэропорт Платов"}},{"geometry":{"type":"Point","coordinates":[39.9566,43.449902]},"type":"Feature","properties":{"id":6519,"ident":"URSS","name":"Sochi International Airport","continent":"EU","iso_country":"RU","iso_region":"RU-KDA","municipality":"Sochi","scheduled_service":"yes","gps_code":"URSS","iata_code":"AER","local_code":"","home_link":"http://basel.aero/en/sochi/","wikipedia_link":"https://en.wikipedia.org/wiki/Sochi_International_Airport","keywords":"Adler Airport, Black Sea, Международный Аэропорт Сочи"}},{"geometry":{"type":"Point","coordinates":[-78.7874984741211,35.877601623535156]},"type":"Feature","properties":{"id":3844,"ident":"KRDU","name":"Raleigh Durham International Airport","continent":"NA","iso_country":"US","iso_region":"US-NC","municipality":"Raleigh/Durham","scheduled_service":"yes","gps_code":"KRDU","iata_code":"RDU","local_code":"RDU","home_link":"","wikipedia_link":"https://en.wikipedia.org/wiki/Raleigh-Durham_International_Airport","keywords":""}},{"geometry":{"type":"Point","coordinates":[-89.09719848632812,42.19540023803711]},"type":"Feature","properties":{"id":3845,"ident":"KRFD","name":"Chicago Rockford International Airport","continent":"NA","iso_country":"US","iso_region":"US-IL","municipality":"Chicago/Rockford","scheduled_service":"yes","gps_code":"KRFD","iata_code":"RFD","local_code":"RFD","home_link":"","wikipedia_link":"https://en.wikipedia.org/wiki/Chicago/Rockford_International_Airport","keywords":""}},{"geometry":{"type":"Point","coordinates":[-77.3197021484375,37.50519943237305]},"type":"Feature","properties":{"id":3847,"ident":"KRIC","name":"Richmond International Airport","continent":"NA","iso_country":"US","iso_region":"US-VA","municipality":"Richmond","scheduled_service":"yes","gps_code":"KRIC","iata_code":"RIC","local_code":"RIC","home_link":"","wikipedia_link":"https://en.wikipedia.org/wiki/Richmond_International_Airport","keywords":""}},{"geometry":{"type":"Point","coordinates":[-98.27890015,29.52969933]},"type":"Feature","properties":{"id":3852,"ident":"KRND","name":"Randolph Air Force Base","continent":"NA","iso_country":"US","iso_region":"US-TX","municipality":"Universal City","scheduled_service":"no","gps_code":"KRND","iata_code":"RND","local_code":"RND","home_link":"http://www.military.com/base-guide/randolph-air-force-base","wikipedia_link":"https://en.wikipedia.org/wiki/Randolph_Air_Force_Base","keywords":""}},{"geometry":{"type":"Point","coordinates":[-119.76799774169922,39.49909973144531]},"type":"Feature","properties":{"id":3853,"ident":"KRNO","name":"Reno Tahoe International Airport","continent":"NA","iso_country":"US","iso_region":"US-NV","municipality":"Reno","scheduled_service":"yes","gps_code":"KRNO","iata_code":"RNO","local_code":"RNO","home_link":"","wikipedia_link":"https://en.wikipedia.org/wiki/Reno-Tahoe_International_Airport","keywords":""}},{"geometry":{"type":"Point","coordinates":[-79.975403,37.3255]},"type":"Feature","properties":{"id":3854,"ident":"KROA","name":"Roanoke–Blacksburg Regional Airport","continent":"NA","iso_country":"US","iso_region":"US-VA","municipality":"Roanoke","scheduled_service":"yes","gps_code":"KROA","iata_code":"ROA","local_code":"ROA","home_link":"http://www.roanokeairport.com/","wikipedia_link":"https://en.wikipedia.org/wiki/Roanoke%E2%80%93Blacksburg_Regional_Airport","keywords":"Woodrum Field"}},{"geometry":{"type":"Point","coordinates":[-77.67240142822266,43.118900299072266]},"type":"Feature","properties":{"id":3855,"ident":"KROC","name":"Greater Rochester International Airport","continent":"NA","iso_country":"US","iso_region":"US-NY","municipality":"Rochester","scheduled_service":"yes","gps_code":"KROC","iata_code":"ROC","local_code":"ROC","home_link":"","wikipedia_link":"https://en.wikipedia.org/wiki/Greater_Rochester_International_Airport","keywords":""}},{"geometry":{"type":"Point","coordinates":[-92.5,43.90829849243164]},"type":"Feature","properties":{"id":3857,"ident":"KRST","name":"Rochester International Airport","continent":"NA","iso_country":"US","iso_region":"US-MN","municipality":"Rochester","scheduled_service":"yes","gps_code":"KRST","iata_code":"RST","local_code":"RST","home_link":"","wikipedia_link":"https://en.wikipedia.org/wiki/Rochester_International_Airport","keywords":""}},{"geometry":{"type":"Point","coordinates":[-81.75520324707031,26.53619956970215]},"type":"Feature","properties":{"id":3858,"ident":"KRSW","name":"Southwest Florida International Airport","continent":"NA","iso_country":"US","iso_region":"US-FL","municipality":"Fort Myers","scheduled_service":"yes","gps_code":"KRSW","iata_code":"RSW","local_code":"RSW","home_link":"http://www.flylcpa.com/","wikipedia_link":"https://en.wikipedia.org/wiki/Southwest_Florida_International_Airport","keywords":""}},{"geometry":{"type":"Point","coordinates":[-117.190002441,32.7336006165]},"type":"Feature","properties":{"id":3862,"ident":"KSAN","name":"San Diego International Airport","continent":"NA","iso_country":"US","iso_region":"US-CA","municipality":"San Diego","scheduled_service":"yes","gps_code":"KSAN","iata_code":"SAN","local_code":"SAN","home_link":"http://www.san.org/","wikipedia_link":"https://en.wikipedia.org/wiki/San_Diego_International_Airport","keywords":"Lindbergh Field"}},{"geometry":{"type":"Point","coordinates":[-98.46980285644531,29.533700942993164]},"type":"Feature","properties":{"id":3863,"ident":"KSAT","name":"San Antonio International Airport","continent":"NA","iso_country":"US","iso_region":"US-TX","municipality":"San Antonio","scheduled_service":"yes","gps_code":"KSAT","iata_code":"SAT","local_code":"SAT","home_link":"","wikipedia_link":"https://en.wikipedia.org/wiki/San_Antonio_International_Airport","keywords":""}},{"geometry":{"type":"Point","coordinates":[-81.20210266,32.12760162]},"type":"Feature","properties":{"id":3864,"ident":"KSAV","name":"Savannah Hilton Head International Airport","continent":"NA","iso_country":"US","iso_region":"US-GA","municipality":"Savannah","scheduled_service":"yes","gps_code":"KSAV","iata_code":"SAV","local_code":"SAV","home_link":"","wikipedia_link":"https://en.wikipedia.org/wiki/Savannah/Hilton_Head_International_Airport","keywords":""}},{"geometry":{"type":"Point","coordinates":[-86.31729888916016,41.70869827270508]},"type":"Feature","properties":{"id":3868,"ident":"KSBN","name":"South Bend Regional Airport","continent":"NA","iso_country":"US","iso_region":"US-IN","municipality":"South Bend","scheduled_service":"yes","gps_code":"KSBN","iata_code":"SBN","local_code":"SBN","home_link":"","wikipedia_link":"https://en.wikipedia.org/wiki/South_Bend_Regional_Airport","keywords":""}},{"geometry":{"type":"Point","coordinates":[-85.736,38.1744]},"type":"Feature","properties":{"id":3873,"ident":"KSDF","name":"Louisville Muhammad Ali International Airport","continent":"NA","iso_country":"US","iso_region":"US-KY","municipality":"Louisville","scheduled_service":"yes","gps_code":"KSDF","iata_code":"SDF","local_code":"SDF","home_link":"http://www.flylouisville.com","wikipedia_link":"https://en.wikipedia.org/wiki/Louisville_International_Airport","keywords":"Louisville International, Standiford Field"}},{"geometry":{"type":"Point","coordinates":[-122.308998,47.449001]},"type":"Feature","properties":{"id":3875,"ident":"KSEA","name":"Seattle Tacoma International Airport","continent":"NA","iso_country":"US","iso_region":"US-WA","municipality":"Seattle","scheduled_service":"yes","gps_code":"KSEA","iata_code":"SEA","local_code":"SEA","home_link":"http://www.portseattle.org/seatac/","wikipedia_link":"https://en.wikipedia.org/wiki/Seattle–Tacoma_International_Airport","keywords":""}},{"geometry":{"type":"Point","coordinates":[-81.23750305175781,28.777599334716797]},"type":"Feature","properties":{"id":3876,"ident":"KSFB","name":"Orlando Sanford International Airport","continent":"NA","iso_country":"US","iso_region":"US-FL","municipality":"Orlando","scheduled_service":"yes","gps_code":"KSFB","iata_code":"SFB","local_code":"SFB","home_link":"","wikipedia_link":"https://en.wikipedia.org/wiki/Orlando_Sanford_International_Airport","keywords":""}},{"geometry":{"type":"Point","coordinates":[-122.375,37.61899948120117]},"type":"Feature","properties":{"id":3878,"ident":"KSFO","name":"San Francisco International Airport","continent":"NA","iso_country":"US","iso_region":"US-CA","municipality":"San Francisco","scheduled_service":"yes","gps_code":"KSFO","iata_code":"SFO","local_code":"SFO","home_link":"http://www.flysfo.com/","wikipedia_link":"https://en.wikipedia.org/wiki/San_Francisco_International_Airport","keywords":"QSF, QBA"}},{"geometry":{"type":"Point","coordinates":[-93.38860321,37.24570084]},"type":"Feature","properties":{"id":3879,"ident":"KSGF","name":"Springfield Branson National Airport","continent":"NA","iso_country":"US","iso_region":"US-MO","municipality":"Springfield","scheduled_service":"yes","gps_code":"KSGF","iata_code":"SGF","local_code":"SGF","home_link":"","wikipedia_link":"https://en.wikipedia.org/wiki/Springfield/Branson_National_Airport","keywords":""}},{"geometry":{"type":"Point","coordinates":[-121.929001,37.362598]},"type":"Feature","properties":{"id":3883,"ident":"KSJC","name":"Norman Y. Mineta San Jose International Airport","continent":"NA","iso_country":"US","iso_region":"US-CA","municipality":"San Jose","scheduled_service":"yes","gps_code":"KSJC","iata_code":"SJC","local_code":"SJC","home_link":"http://www.flysanjose.com/","wikipedia_link":"https://en.wikipedia.org/wiki/San_Jose_International_Airport","keywords":"QSF, QBA"}},{"geometry":{"type":"Point","coordinates":[-117.65599823,47.6151008606]},"type":"Feature","properties":{"id":3885,"ident":"KSKA","name":"Fairchild Air Force Base","continent":"NA","iso_country":"US","iso_region":"US-WA","municipality":"Spokane","scheduled_service":"no","gps_code":"KSKA","iata_code":"SKA","local_code":"SKA","home_link":"http://www.fairchild.af.mil/","wikipedia_link":"https://en.wikipedia.org/wiki/Fairchild_Air_Force_Base","keywords":""}},{"geometry":{"type":"Point","coordinates":[-111.97799682617188,40.78839874267578]},"type":"Feature","properties":{"id":3887,"ident":"KSLC","name":"Salt Lake City International Airport","continent":"NA","iso_country":"US","iso_region":"US-UT","municipality":"Salt Lake City","scheduled_service":"yes","gps_code":"KSLC","iata_code":"SLC","local_code":"SLC","home_link":"","wikipedia_link":"https://en.wikipedia.org/wiki/Salt_Lake_City_International_Airport","keywords":""}},{"geometry":{"type":"Point","coordinates":[-121.59100341796875,38.69540023803711]},"type":"Feature","properties":{"id":3892,"ident":"KSMF","name":"Sacramento International Airport","continent":"NA","iso_country":"US","iso_region":"US-CA","municipality":"Sacramento","scheduled_service":"yes","gps_code":"KSMF","iata_code":"SMF","local_code":"SMF","home_link":"","wikipedia_link":"https://en.wikipedia.org/wiki/Sacramento_International_Airport","keywords":""}},{"geometry":{"type":"Point","coordinates":[-117.8679962,33.67570114]},"type":"Feature","properties":{"id":3894,"ident":"KSNA","name":"John Wayne Airport-Orange County Airport","continent":"NA","iso_country":"US","iso_region":"US-CA","municipality":"Santa Ana","scheduled_service":"yes","gps_code":"KSNA","iata_code":"SNA","local_code":"SNA","home_link":"http://www.ocair.com/","wikipedia_link":"https://en.wikipedia.org/wiki/John_Wayne_Airport","keywords":"Disney, Disneyland, Orange County"}},{"geometry":{"type":"Point","coordinates":[-89.67790222,39.84410095]},"type":"Feature","properties":{"id":3897,"ident":"KSPI","name":"Abraham Lincoln Capital Airport","continent":"NA","iso_country":"US","iso_region":"US-IL","municipality":"Springfield","scheduled_service":"yes","gps_code":"KSPI","iata_code":"SPI","local_code":"SPI","home_link":"","wikipedia_link":"https://en.wikipedia.org/wiki/Abraham_Lincoln_Capital_Airport","keywords":""}},{"geometry":{"type":"Point","coordinates":[-98.491898,33.9888]},"type":"Feature","properties":{"id":3898,"ident":"KSPS","name":"Sheppard Air Force Base-Wichita Falls Municipal Airport","continent":"NA","iso_country":"US","iso_region":"US-TX","municipality":"Wichita Falls","scheduled_service":"yes","gps_code":"KSPS","iata_code":"SPS","local_code":"SPS","home_link":"http://www.flywichitafalls.net/","wikipedia_link":"https://en.wikipedia.org/wiki/Wichita_Falls_Municipal_Airport","keywords":"Sheppard Air Force Base"}},{"geometry":{"type":"Point","coordinates":[-82.55439758300781,27.39539909362793]},"type":"Feature","properties":{"id":3899,"ident":"KSRQ","name":"Sarasota Bradenton International Airport","continent":"NA","iso_country":"US","iso_region":"US-FL","municipality":"Sarasota/Bradenton","scheduled_service":"yes","gps_code":"KSRQ","iata_code":"SRQ","local_code":"SRQ","home_link":"","wikipedia_link":"https://en.wikipedia.org/wiki/Sarasota-Bradenton_International_Airport","keywords":""}},{"geometry":{"type":"Point","coordinates":[-80.47059631,33.97269821]},"type":"Feature","properties":{"id":3901,"ident":"KSSC","name":"Shaw Air Force Base","continent":"NA","iso_country":"US","iso_region":"US-SC","municipality":"Sumter","scheduled_service":"no","gps_code":"KSSC","iata_code":"SSC","local_code":"SSC","home_link":"http://www.shaw.af.mil/","wikipedia_link":"https://en.wikipedia.org/wiki/Shaw_Air_Force_Base","keywords":""}},{"geometry":{"type":"Point","coordinates":[-90.370003,38.748697]},"type":"Feature","properties":{"id":3905,"ident":"KSTL","name":"St Louis Lambert International Airport","continent":"NA","iso_country":"US","iso_region":"US-MO","municipality":"St Louis","scheduled_service":"yes","gps_code":"KSTL","iata_code":"STL","local_code":"STL","home_link":"https://www.flystl.com/","wikipedia_link":"https://en.wikipedia.org/wiki/St._Louis_Lambert_International_Airport","keywords":"Lambert St Louis"}},{"geometry":{"type":"Point","coordinates":[-90.652000427246,38.662101745605]},"type":"Feature","properties":{"id":3907,"ident":"KSUS","name":"Spirit of St Louis Airport","continent":"NA","iso_country":"US","iso_region":"US-MO","municipality":"St Louis","scheduled_service":"no","gps_code":"KSUS","iata_code":"SUS","local_code":"SUS","home_link":"http://spiritairport.com/spiritairport/index.jsp","wikipedia_link":"https://en.wikipedia.org/wiki/Spirit_of_St._Louis_Airport","keywords":""}},{"geometry":{"type":"Point","coordinates":[-121.92700195312,38.262699127197]},"type":"Feature","properties":{"id":3908,"ident":"KSUU","name":"Travis Air Force Base","continent":"NA","iso_country":"US","iso_region":"US-CA","municipality":"Fairfield","scheduled_service":"no","gps_code":"KSUU","iata_code":"SUU","local_code":"SUU","home_link":"http://www.travis.af.mil/","wikipedia_link":"https://en.wikipedia.org/wiki/Travis_Air_Force_Base","keywords":""}},{"geometry":{"type":"Point","coordinates":[-96.384399,42.402599]},"type":"Feature","properties":{"id":3909,"ident":"KSUX","name":"Sioux Gateway Airport/Brigadier General Bud Day Field","continent":"NA","iso_country":"US","iso_region":"US-IA","municipality":"Sioux City","scheduled_service":"yes","gps_code":"KSUX","iata_code":"SUX","local_code":"SUX","home_link":"https://www.sioux-city.org/government/departments-a-f/airport","wikipedia_link":"https://en.wikipedia.org/wiki/Sioux_Gateway_Airport","keywords":"Col. Bud Day, Sioux City AB, Sioux City AAB"}},{"geometry":{"type":"Point","coordinates":[-76.1063003540039,43.11119842529297]},"type":"Feature","properties":{"id":3913,"ident":"KSYR","name":"Syracuse Hancock International Airport","continent":"NA","iso_country":"US","iso_region":"US-NY","municipality":"Syracuse","scheduled_service":"yes","gps_code":"KSYR","iata_code":"SYR","local_code":"SYR","home_link":"http://www.syrairport.org/","wikipedia_link":"https://en.wikipedia.org/wiki/Syracuse_Hancock_International_Airport","keywords":""}},{"geometry":{"type":"Point","coordinates":[-93.547897338867,38.73030090332]},"type":"Feature","properties":{"id":3914,"ident":"KSZL","name":"Whiteman Air Force Base","continent":"NA","iso_country":"US","iso_region":"US-MO","municipality":"Knob Noster","scheduled_service":"no","gps_code":"KSZL","iata_code":"SZL","local_code":"SZL","home_link":"http://www.whiteman.af.mil/","wikipedia_link":"https://en.wikipedia.org/wiki/Whiteman_Air_Force_Base","keywords":"Sedalia Glider Base"}},{"geometry":{"type":"Point","coordinates":[-122.475997925,47.1376991272]},"type":"Feature","properties":{"id":3918,"ident":"KTCM","name":"McChord Air Force Base","continent":"NA","iso_country":"US","iso_region":"US-WA","municipality":"Tacoma","scheduled_service":"no","gps_code":"KTCM","iata_code":"TCM","local_code":"TCM","home_link":"","wikipedia_link":"https://en.wikipedia.org/wiki/McChord_Air_Force_Base","keywords":""}},{"geometry":{"type":"Point","coordinates":[-97.386596679688,35.414699554443]},"type":"Feature","properties":{"id":3921,"ident":"KTIK","name":"Tinker Air Force Base","continent":"NA","iso_country":"US","iso_region":"US-OK","municipality":"Oklahoma City","scheduled_service":"no","gps_code":"KTIK","iata_code":"TIK","local_code":"TIK","home_link":"http://www.tinker.af.mil/","wikipedia_link":"https://en.wikipedia.org/wiki/Tinker_Air_Force_Base","keywords":"Midwest Air Depot"}},{"geometry":{"type":"Point","coordinates":[-84.35030364990234,30.396499633789062]},"type":"Feature","properties":{"id":3924,"ident":"KTLH","name":"Tallahassee Regional Airport","continent":"NA","iso_country":"US","iso_region":"US-FL","municipality":"Tallahassee","scheduled_service":"yes","gps_code":"KTLH","iata_code":"TLH","local_code":"TLH","home_link":"","wikipedia_link":"https://en.wikipedia.org/wiki/Tallahassee_Regional_Airport","keywords":""}},{"geometry":{"type":"Point","coordinates":[-83.80780029,41.58679962]},"type":"Feature","properties":{"id":3925,"ident":"KTOL","name":"Toledo Express Airport","continent":"NA","iso_country":"US","iso_region":"US-OH","municipality":"Toledo","scheduled_service":"yes","gps_code":"KTOL","iata_code":"TOL","local_code":"TOL","home_link":"","wikipedia_link":"https://en.wikipedia.org/wiki/Toledo_Express_Airport","keywords":""}},{"geometry":{"type":"Point","coordinates":[-82.533203125,27.975500106811523]},"type":"Feature","properties":{"id":3926,"ident":"KTPA","name":"Tampa International Airport","continent":"NA","iso_country":"US","iso_region":"US-FL","municipality":"Tampa","scheduled_service":"yes","gps_code":"KTPA","iata_code":"TPA","local_code":"TPA","home_link":"","wikipedia_link":"https://en.wikipedia.org/wiki/Tampa_International_Airport","keywords":""}},{"geometry":{"type":"Point","coordinates":[-82.407401,36.475201]},"type":"Feature","properties":{"id":3928,"ident":"KTRI","name":"Tri-Cities Regional TN/VA Airport","continent":"NA","iso_country":"US","iso_region":"US-TN","municipality":"Bristol/Johnson/Kingsport","scheduled_service":"yes","gps_code":"KTRI","iata_code":"TRI","local_code":"TRI","home_link":"","wikipedia_link":"https://en.wikipedia.org/wiki/Tri-Cities_Regional_Airport","keywords":""}},{"geometry":{"type":"Point","coordinates":[-95.88809967041016,36.19839859008789]},"type":"Feature","properties":{"id":3930,"ident":"KTUL","name":"Tulsa International Airport","continent":"NA","iso_country":"US","iso_region":"US-OK","municipality":"Tulsa","scheduled_service":"yes","gps_code":"KTUL","iata_code":"TUL","local_code":"TUL","home_link":"","wikipedia_link":"https://en.wikipedia.org/wiki/Tulsa_International_Airport","keywords":""}},{"geometry":{"type":"Point","coordinates":[-110.94100189208984,32.1161003112793]},"type":"Feature","properties":{"id":3932,"ident":"KTUS","name":"Tucson International Airport","continent":"NA","iso_country":"US","iso_region":"US-AZ","municipality":"Tucson","scheduled_service":"yes","gps_code":"KTUS","iata_code":"TUS","local_code":"TUS","home_link":"","wikipedia_link":"https://en.wikipedia.org/wiki/Tucson_International_Airport","keywords":""}},{"geometry":{"type":"Point","coordinates":[-83.9940033,35.81100082]},"type":"Feature","properties":{"id":3938,"ident":"KTYS","name":"McGhee Tyson Airport","continent":"NA","iso_country":"US","iso_region":"US-TN","municipality":"Knoxville","scheduled_service":"yes","gps_code":"KTYS","iata_code":"TYS","local_code":"TYS","home_link":"","wikipedia_link":"https://en.wikipedia.org/wiki/McGhee_Tyson_Airport","keywords":""}},{"geometry":{"type":"Point","coordinates":[-120.583999634,34.7373008728]},"type":"Feature","properties":{"id":3944,"ident":"KVBG","name":"Vandenberg Air Force Base","continent":"NA","iso_country":"US","iso_region":"US-CA","municipality":"Lompoc","scheduled_service":"no","gps_code":"KVBG","iata_code":"VBG","local_code":"VBG","home_link":"","wikipedia_link":"https://en.wikipedia.org/wiki/Vandenberg_Air_Force_Base","keywords":""}},{"geometry":{"type":"Point","coordinates":[-86.525398,30.4832]},"type":"Feature","properties":{"id":3948,"ident":"KVPS","name":"Destin-Ft Walton Beach Airport","continent":"NA","iso_country":"US","iso_region":"US-FL","municipality":"Valparaiso","scheduled_service":"yes","gps_code":"KVPS","iata_code":"VPS","local_code":"VPS","home_link":"http://www.flyvps.com/","wikipedia_link":"https://en.wikipedia.org/wiki/Destin%E2%80%93Fort_Walton_Beach_Airport","keywords":"Eglin AFB"}},{"geometry":{"type":"Point","coordinates":[-83.5919036865,32.6400985718]},